counter ; t (in s) ; lat0 (in decimal degrees) ; long0 (in decimal degrees) ; roll (in rad) ; pitch (in rad) ; yaw (in rad) ; winddir (in rad) ; windspeed (in m/s) ; filteredwinddir (in rad) ; filteredwindspeed (in m/s) ; heading (in rad) ; theta (in rad) ; psi (in rad) ; latitude (in decimal degrees) ; longitude (in decimal degrees) ; x (in m) ; y (in m) ; ax (in m) ; ay (in m) ; bx (in m) ; by (in m) ; CurWP ; wpslat[CurWP] (in decimal degrees) ; wpslong[CurWP] (in decimal degrees) ; e (in m) ; norm_ma (in m) ; norm_bm (in m) ; state ; deltag (in rad) ; deltavmax (in rad) ; phi+gammabar (in rad) ; gps time (in s) ;
1 ; 1560345946 ; 48.281331 ; -4.630436 ; 0 ; 0 ; 0 ; 0 ; 0 ; 0 ; 0 ; 0 ; 0 ; 0 ; 48.33804204 ; -4.687038715 ; -4183.79538162 ; 6305.97993274 ; 0 ; 0 ; 0 ; 0 ; 0 ; 0 ; 0 ; 0 ; 0 ; 0 ; 1 ; 0 ; 0 ; 0 ; 1560345947 ;
2 ; 1560345947 ; 48.281331 ; -4.630436 ; 0 ; 0 ; 0 ; 0 ; 0 ; 0 ; 0 ; 0 ; -0.468660665818 ; 0 ; 48.3380328683 ; -4.68700494667 ; -4181.3001441 ; 6304.96008993 ; 0 ; 0 ; 0 ; 0 ; 0 ; 0 ; 0 ; 0 ; 0 ; 0 ; 1 ; 0 ; 0 ; 0 ; 1560345948 ;
3 ; 1560345948 ; 48.281331 ; -4.630436 ; 0 ; 0 ; 0 ; 0 ; 0 ; 0 ; 0 ; 0 ; -0.482454372712 ; 0 ; 48.3380223983 ; -4.68697198667 ; -4178.86476017 ; 6303.79587905 ; 0 ; 0 ; 0 ; 0 ; 0 ; 0 ; 0 ; 0 ; 0 ; 0 ; 1 ; 0 ; 0 ; 0 ; 1560345949 ;
4 ; 1560345949 ; 48.281331 ; -4.630436 ; 0 ; 0 ; 0 ; 0 ; 0 ; 0 ; 0 ; 0 ; -0.492069555589 ; 0 ; 48.33801165 ; -4.68693945 ; -4176.46068878 ; 6302.60071892 ; 0 ; 0 ; 0 ; 0 ; 0 ; 0 ; 0 ; 0 ; 0 ; 0 ; 1 ; 0 ; 0 ; 0 ; 1560345950 ;
5 ; 1560345950 ; 48.281331 ; -4.630436 ; 0 ; 0 ; 0 ; 0 ; 0 ; 0 ; 0 ; 0 ; -0.466942621537 ; 0 ; 48.3380004767 ; -4.686907185 ; -4174.07673146 ; 6301.35830094 ; 0 ; 0 ; 0 ; 0 ; 0 ; 0 ; 0 ; 0 ; 0 ; 0 ; 1 ; 0 ; 0 ; 0 ; 1560345951 ;
6 ; 1560345951 ; 48.281331 ; -4.630436 ; 0 ; 0 ; 0 ; 0 ; 0 ; 0 ; 0 ; 0 ; -0.418544842072 ; 0 ; 48.3379889283 ; -4.68687490333 ; -4171.69157186 ; 6300.07418486 ; 0 ; 0 ; 0 ; 0 ; 0 ; 0 ; 0 ; 0 ; 0 ; 0 ; 1 ; 0 ; 0 ; 0 ; 1560345952 ;
7 ; 1560345952 ; 48.281331 ; -4.630436 ; 0 ; 0 ; 0 ; 0 ; 0 ; 0 ; 0 ; 0 ; -0.341686202355 ; 0 ; 48.3379785533 ; -4.686841145 ; -4169.19716712 ; 6298.92053749 ; 0 ; 0 ; 0 ; 0 ; 0 ; 0 ; 0 ; 0 ; 0 ; 0 ; 1 ; 0 ; 0 ; 0 ; 1560345953 ;
8 ; 1560345953 ; 48.281331 ; -4.630436 ; 0 ; 0 ; 0 ; 0 ; 0 ; 0 ; 0 ; 0 ; -0.265085412331 ; 0 ; 48.3379693717 ; -4.686806545 ; -4166.64045186 ; 6297.89958274 ; 0 ; 0 ; 0 ; 0 ; 0 ; 0 ; 0 ; 0 ; 0 ; 0 ; 1 ; 0 ; 0 ; 0 ; 1560345954 ;
9 ; 1560345954 ; 48.281331 ; -4.630436 ; 0 ; 0 ; 0 ; 0 ; 0 ; 0 ; 0 ; 0 ; -0.264829708405 ; 0 ; 48.3379614483 ; -4.68677119 ; -4164.02782692 ; 6297.01854827 ; 0 ; 0 ; 0 ; 0 ; 0 ; 0 ; 0 ; 0 ; 0 ; 0 ; 1 ; 0 ; 0 ; 0 ; 1560345955 ;
10 ; 1560345955 ; 48.281331 ; -4.630436 ; 0 ; 0 ; 0 ; 0 ; 0 ; 0 ; 0 ; 0 ; -0.274170590707 ; 0 ; 48.3379548633 ; -4.68673558 ; -4161.39624353 ; 6296.28632968 ; 0 ; 0 ; 0 ; 0 ; 0 ; 0 ; 0 ; 0 ; 0 ; 0 ; 1 ; 0 ; 0 ; 0 ; 1560345956 ;
11 ; 1560345956 ; 48.281331 ; -4.630436 ; 0 ; 0 ; 0 ; 0 ; 0 ; 0 ; 0 ; 0 ; -0.261130405732 ; 0 ; 48.3379484383 ; -4.68669965667 ; -4158.74148631 ; 6295.57190228 ; 0 ; 0 ; 0 ; 0 ; 0 ; 0 ; 0 ; 0 ; 0 ; 0 ; 1 ; 0 ; 0 ; 0 ; 1560345957 ;
12 ; 1560345957 ; 48.281331 ; -4.630436 ; 0 ; 0 ; 0 ; 0 ; 0 ; 0 ; 0 ; 0 ; -0.20038755066 ; 0 ; 48.3379417883 ; -4.68666267333 ; -4156.0083966 ; 6294.83245602 ; 0 ; 0 ; 0 ; 0 ; 0 ; 0 ; 0 ; 0 ; 0 ; 0 ; 1 ; 0 ; 0 ; 0 ; 1560345958 ;
13 ; 1560345958 ; 48.281331 ; -4.630436 ; 0 ; 0 ; 0 ; 0 ; 0 ; 0 ; 0 ; 0 ; -0.16093404419 ; 0 ; 48.3379357367 ; -4.68662386167 ; -4153.1401157 ; 6294.15954138 ; 0 ; 0 ; 0 ; 0 ; 0 ; 0 ; 0 ; 0 ; 0 ; 0 ; 1 ; 0 ; 0 ; 0 ; 1560345959 ;
14 ; 1560345959 ; 48.281331 ; -4.630436 ; 0 ; 0 ; 0 ; 0 ; 0 ; 0 ; 0 ; 0 ; -0.178328229256 ; 0 ; 48.33793097 ; -4.68658428333 ; -4150.21506115 ; 6293.62951223 ; 0 ; 0 ; 0 ; 0 ; 0 ; 0 ; 0 ; 0 ; 0 ; 0 ; 1 ; 0 ; 0 ; 0 ; 1560345960 ;
15 ; 1560345960 ; 48.281331 ; -4.630436 ; 0 ; 0 ; 0 ; 0 ; 0 ; 0 ; 0 ; 0 ; -0.27739341385 ; 0 ; 48.3379276133 ; -4.686546305 ; -4147.40815578 ; 6293.25626793 ; 0 ; 0 ; 0 ; 0 ; 0 ; 0 ; 0 ; 0 ; 0 ; 0 ; 1 ; 0 ; 0 ; 0 ; 1560345961 ;
16 ; 1560345961 ; 48.281331 ; -4.630436 ; 0 ; 0 ; 0 ; 0 ; 0 ; 0 ; 0 ; 0 ; -0.4122058881 ; 0 ; 48.337923695 ; -4.68651001 ; -4144.72571973 ; 6292.82056914 ; 0 ; 0 ; 0 ; 0 ; 0 ; 0 ; 0 ; 0 ; 0 ; 0 ; 1 ; 0 ; 0 ; 0 ; 1560345962 ;
17 ; 1560345962 ; 48.281331 ; -4.630436 ; 0 ; 0 ; 0 ; 0 ; 0 ; 0 ; 0 ; 0 ; -0.559778047868 ; 0 ; 48.337917325 ; -4.68647806 ; -4142.36464437 ; 6292.11225746 ; 0 ; 0 ; 0 ; 0 ; 0 ; 0 ; 0 ; 0 ; 0 ; 0 ; 1 ; 0 ; 0 ; 0 ; 1560345963 ;
18 ; 1560345963 ; 48.281331 ; -4.630436 ; 0 ; 0 ; 0 ; 0 ; 0 ; 0 ; 0 ; 0 ; -0.680324865647 ; 0 ; 48.3379095817 ; -4.68645087667 ; -4140.3560095 ; 6291.25123808 ; 0 ; 0 ; 0 ; 0 ; 0 ; 0 ; 0 ; 0 ; 0 ; 0 ; 1 ; 0 ; 0 ; 0 ; 1560345964 ;
19 ; 1560345964 ; 48.281331 ; -4.630436 ; 0 ; 0 ; 0 ; 0 ; 0 ; 0 ; 0 ; 0 ; -0.662323786088 ; 0 ; 48.337899295 ; -4.68642507 ; -4138.44933721 ; 6290.10741293 ; 0 ; 0 ; 0 ; 0 ; 0 ; 0 ; 0 ; 0 ; 0 ; 0 ; 1 ; 0 ; 0 ; 0 ; 1560345965 ;
20 ; 1560345965 ; 48.281331 ; -4.630436 ; 0 ; 0 ; 0 ; 0 ; 0 ; 0 ; 0 ; 0 ; -0.528003526994 ; 0 ; 48.3378868567 ; -4.6863976 ; -4136.41989292 ; 6288.72433337 ; 0 ; 0 ; 0 ; 0 ; 0 ; 0 ; 0 ; 0 ; 0 ; 0 ; 1 ; 0 ; 0 ; 0 ; 1560345966 ;
21 ; 1560345966 ; 48.281331 ; -4.630436 ; 0 ; 0 ; 0 ; 0 ; 0 ; 0 ; 0 ; 0 ; -0.309256030389 ; 0 ; 48.3378750683 ; -4.68636857167 ; -4134.27521018 ; 6287.41353051 ; 0 ; 0 ; 0 ; 0 ; 0 ; 0 ; 0 ; 0 ; 0 ; 0 ; 1 ; 0 ; 0 ; 0 ; 1560345967 ;
22 ; 1560345967 ; 48.281331 ; -4.630436 ; 0 ; 0 ; 0 ; 0 ; 0 ; 0 ; 0 ; 0 ; -0.114999843903 ; 0 ; 48.337865045 ; -4.68633808 ; -4132.02222058 ; 6286.2989867 ; 0 ; 0 ; 0 ; 0 ; 0 ; 0 ; 0 ; 0 ; 0 ; 0 ; 1 ; 0 ; 0 ; 0 ; 1560345968 ;
23 ; 1560345968 ; 48.281331 ; -4.630436 ; 0 ; 0 ; 0 ; 0 ; 0 ; 0 ; 0 ; 0 ; -0.024411989518 ; 0 ; 48.3378579367 ; -4.686308085 ; -4129.80570526 ; 6285.50857609 ; 0 ; 0 ; 0 ; 0 ; 0 ; 0 ; 0 ; 0 ; 0 ; 0 ; 1 ; 0 ; 0 ; 0 ; 1560345969 ;
24 ; 1560345969 ; 48.281331 ; -4.630436 ; 0 ; 0 ; 0 ; 0 ; 0 ; 0 ; 0 ; 0 ; -0.0388699305733 ; 0 ; 48.337853815 ; -4.68628026 ; -4127.74934387 ; 6285.05026767 ; 0 ; 0 ; 0 ; 0 ; 0 ; 0 ; 0 ; 0 ; 0 ; 0 ; 1 ; 0 ; 0 ; 0 ; 1560345970 ;
25 ; 1560345970 ; 48.281331 ; -4.630436 ; 0 ; 0 ; 0 ; 0 ; 0 ; 0 ; 0 ; 0 ; -0.0993711484154 ; 0 ; 48.337851415 ; -4.686251215 ; -4125.60266606 ; 6284.78339985 ; 0 ; 0 ; 0 ; 0 ; 0 ; 0 ; 0 ; 0 ; 0 ; 0 ; 1 ; 0 ; 0 ; 0 ; 1560345971 ;
26 ; 1560345971 ; 48.281331 ; -4.630436 ; 0 ; 0 ; 0 ; 0 ; 0 ; 0 ; 0 ; 0 ; -0.124352051087 ; 0 ; 48.337849875 ; -4.68621931833 ; -4123.24513647 ; 6284.61215966 ; 0 ; 0 ; 0 ; 0 ; 0 ; 0 ; 0 ; 0 ; 0 ; 0 ; 1 ; 0 ; 0 ; 0 ; 1560345972 ;
27 ; 1560345972 ; 48.281331 ; -4.630436 ; 0 ; 0 ; 0 ; 0 ; 0 ; 0 ; 0 ; 0 ; -0.125767422982 ; 0 ; 48.3378490667 ; -4.68618641 ; -4120.81276987 ; 6284.52227709 ; 0 ; 0 ; 0 ; 0 ; 0 ; 0 ; 0 ; 0 ; 0 ; 0 ; 1 ; 0 ; 0 ; 0 ; 1560345973 ;
28 ; 1560345973 ; 48.281331 ; -4.630436 ; 0 ; 0 ; 0 ; 0 ; 0 ; 0 ; 0 ; 0 ; -0.147467447587 ; 0 ; 48.3378473 ; -4.686154435 ; -4118.44946829 ; 6284.32583272 ; 0 ; 0 ; 0 ; 0 ; 0 ; 0 ; 0 ; 0 ; 0 ; 0 ; 1 ; 0 ; 0 ; 0 ; 1560345974 ;
29 ; 1560345974 ; 48.281331 ; -4.630436 ; 0 ; 0 ; 0 ; 0 ; 0 ; 0 ; 0 ; 0 ; -0.202376200028 ; 0 ; 48.3378444317 ; -4.686123815 ; -4116.18641085 ; 6284.00688861 ; 0 ; 0 ; 0 ; 0 ; 0 ; 0 ; 0 ; 0 ; 0 ; 0 ; 1 ; 0 ; 0 ; 0 ; 1560345975 ;
30 ; 1560345975 ; 48.281331 ; -4.630436 ; 0 ; 0 ; 0 ; 0 ; 0 ; 0 ; 0 ; 0 ; -0.259154869386 ; 0 ; 48.3378406617 ; -4.68609216167 ; -4113.84704668 ; 6283.58768373 ; 0 ; 0 ; 0 ; 0 ; 0 ; 0 ; 0 ; 0 ; 0 ; 0 ; 1 ; 0 ; 0 ; 0 ; 1560345976 ;
31 ; 1560345976 ; 48.281331 ; -4.630436 ; 0 ; 0 ; 0 ; 0 ; 0 ; 0 ; 0 ; 0 ; -0.270682407685 ; 0 ; 48.337836325 ; -4.68605951 ; -4111.43393565 ; 6283.1054684 ; 0 ; 0 ; 0 ; 0 ; 0 ; 0 ; 0 ; 0 ; 0 ; 0 ; 1 ; 0 ; 0 ; 0 ; 1560345977 ;
32 ; 1560345977 ; 48.281331 ; -4.630436 ; 0 ; 0 ; 0 ; 0 ; 0 ; 0 ; 0 ; 0 ; -0.208352400132 ; 0 ; 48.3378316283 ; -4.68602607167 ; -4108.96270644 ; 6282.5832229 ; 0 ; 0 ; 0 ; 0 ; 0 ; 0 ; 0 ; 0 ; 0 ; 0 ; 1 ; 0 ; 0 ; 0 ; 1560345978 ;
33 ; 1560345978 ; 48.281331 ; -4.630436 ; 0 ; 0 ; 0 ; 0 ; 0 ; 0 ; 0 ; 0 ; -0.140910221406 ; 0 ; 48.3378266783 ; -4.68599289667 ; -4106.51096158 ; 6282.03280801 ; 0 ; 0 ; 0 ; 0 ; 0 ; 0 ; 0 ; 0 ; 0 ; 0 ; 1 ; 0 ; 0 ; 0 ; 1560345979 ;
34 ; 1560345979 ; 48.281331 ; -4.630436 ; 0 ; 0 ; 0 ; 0 ; 0 ; 0 ; 0 ; 0 ; -0.143230749436 ; 0 ; 48.3378225317 ; -4.68596028667 ; -4104.10091378 ; 6281.57171971 ; 0 ; 0 ; 0 ; 0 ; 0 ; 0 ; 0 ; 0 ; 0 ; 0 ; 1 ; 0 ; 0 ; 0 ; 1560345980 ;
35 ; 1560345980 ; 48.281331 ; -4.630436 ; 0 ; 0 ; 0 ; 0 ; 0 ; 0 ; 0 ; 0 ; -0.17165942318 ; 0 ; 48.3378190267 ; -4.68592733 ; -4101.66518995 ; 6281.1819815 ; 0 ; 0 ; 0 ; 0 ; 0 ; 0 ; 0 ; 0 ; 0 ; 0 ; 1 ; 0 ; 0 ; 0 ; 1560345981 ;
36 ; 1560345981 ; 48.281331 ; -4.630436 ; 0 ; 0 ; 0 ; 0 ; 0 ; 0 ; 0 ; 0 ; -0.200180126496 ; 0 ; 48.337816595 ; -4.68589436 ; -4099.22839394 ; 6280.9115925 ; 0 ; 0 ; 0 ; 0 ; 0 ; 0 ; 0 ; 0 ; 0 ; 0 ; 1 ; 0 ; 0 ; 0 ; 1560345982 ;
37 ; 1560345982 ; 48.281331 ; -4.630436 ; 0 ; 0 ; 0 ; 0 ; 0 ; 0 ; 0 ; 0 ; -0.240040136643 ; 0 ; 48.337813305 ; -4.685861905 ; -4096.82973312 ; 6280.54576119 ; 0 ; 0 ; 0 ; 0 ; 0 ; 0 ; 0 ; 0 ; 0 ; 0 ; 1 ; 0 ; 0 ; 0 ; 1560345983 ;
38 ; 1560345983 ; 48.281331 ; -4.630436 ; 0 ; 0 ; 0 ; 0 ; 0 ; 0 ; 0 ; 0 ; -0.334914995499 ; 0 ; 48.3378096083 ; -4.685830975 ; -4094.54382569 ; 6280.13471061 ; 0 ; 0 ; 0 ; 0 ; 0 ; 0 ; 0 ; 0 ; 0 ; 0 ; 1 ; 0 ; 0 ; 0 ; 1560345984 ;
39 ; 1560345984 ; 48.281331 ; -4.630436 ; 0 ; 0 ; 0 ; 0 ; 0 ; 0 ; 0 ; 0 ; -0.389908505746 ; 0 ; 48.337805 ; -4.68580054667 ; -4092.29507203 ; 6279.62228732 ; 0 ; 0 ; 0 ; 0 ; 0 ; 0 ; 0 ; 0 ; 0 ; 0 ; 1 ; 0 ; 0 ; 0 ; 1560345985 ;
40 ; 1560345985 ; 48.281331 ; -4.630436 ; 0 ; 0 ; 0 ; 0 ; 0 ; 0 ; 0 ; 0 ; -0.346662594147 ; 0 ; 48.3377986283 ; -4.68576918333 ; -4089.97734848 ; 6278.91379032 ; 0 ; 0 ; 0 ; 0 ; 0 ; 0 ; 0 ; 0 ; 0 ; 0 ; 1 ; 0 ; 0 ; 0 ; 1560345986 ;
41 ; 1560345986 ; 48.281331 ; -4.630436 ; 0 ; 0 ; 0 ; 0 ; 0 ; 0 ; 0 ; 0 ; -0.268972469636 ; 0 ; 48.337792435 ; -4.68573661833 ; -4087.57078831 ; 6278.22512307 ; 0 ; 0 ; 0 ; 0 ; 0 ; 0 ; 0 ; 0 ; 0 ; 0 ; 1 ; 0 ; 0 ; 0 ; 1560345987 ;
42 ; 1560345987 ; 48.281331 ; -4.630436 ; 0 ; 0 ; 0 ; 0 ; 0 ; 0 ; 0 ; 0 ; -0.11494834549 ; 0 ; 48.3377856217 ; -4.685703605 ; -4085.13113846 ; 6277.46751497 ; 0 ; 0 ; 0 ; 0 ; 0 ; 0 ; 0 ; 0 ; 0 ; 0 ; 1 ; 0 ; 0 ; 0 ; 1560345988 ;
43 ; 1560345988 ; 48.281331 ; -4.630436 ; 0 ; 0 ; 0 ; 0 ; 0 ; 0 ; 0 ; 0 ; -0.0213027728279 ; 0 ; 48.3377804883 ; -4.68567081667 ; -4082.7079844 ; 6276.89671435 ; 0 ; 0 ; 0 ; 0 ; 0 ; 0 ; 0 ; 0 ; 0 ; 0 ; 1 ; 0 ; 0 ; 0 ; 1560345989 ;
44 ; 1560345989 ; 48.281331 ; -4.630436 ; 0 ; 0 ; 0 ; 0 ; 0 ; 0 ; 0 ; 0 ; 0.00609009139938 ; 0 ; 48.33777765 ; -4.68563866833 ; -4080.33195208 ; 6276.58110608 ; 0 ; 0 ; 0 ; 0 ; 0 ; 0 ; 0 ; 0 ; 0 ; 0 ; 1 ; 0 ; 0 ; 0 ; 1560345990 ;
45 ; 1560345990 ; 48.281331 ; -4.630436 ; 0 ; 0 ; 0 ; 0 ; 0 ; 0 ; 0 ; 0 ; -0.00741596347885 ; 0 ; 48.33777734 ; -4.685607665 ; -4078.04035048 ; 6276.54663565 ; 0 ; 0 ; 0 ; 0 ; 0 ; 0 ; 0 ; 0 ; 0 ; 0 ; 1 ; 0 ; 0 ; 0 ; 1560345991 ;
46 ; 1560345991 ; 48.281331 ; -4.630436 ; 0 ; 0 ; 0 ; 0 ; 0 ; 0 ; 0 ; 0 ; -0.0474067462166 ; 0 ; 48.3377782317 ; -4.68557669167 ; -4075.75087026 ; 6276.64578446 ; 0 ; 0 ; 0 ; 0 ; 0 ; 0 ; 0 ; 0 ; 0 ; 0 ; 1 ; 0 ; 0 ; 0 ; 1560345992 ;
47 ; 1560345992 ; 48.281331 ; -4.630436 ; 0 ; 0 ; 0 ; 0 ; 0 ; 0 ; 0 ; 0 ; -0.0652642977913 ; 0 ; 48.3377794583 ; -4.68554417833 ; -4073.3475335 ; 6276.78218357 ; 0 ; 0 ; 0 ; 0 ; 0 ; 0 ; 0 ; 0 ; 0 ; 0 ; 1 ; 0 ; 0 ; 0 ; 1560345993 ;
48 ; 1560345993 ; 48.281331 ; -4.630436 ; 0 ; 0 ; 0 ; 0 ; 0 ; 0 ; 0 ; 0 ; -0.0572988522728 ; 0 ; 48.33778036 ; -4.68551089333 ; -4070.8871847 ; 6276.88244433 ; 0 ; 0 ; 0 ; 0 ; 0 ; 0 ; 0 ; 0 ; 0 ; 0 ; 1 ; 0 ; 0 ; 0 ; 1560345994 ;
49 ; 1560345994 ; 48.281331 ; -4.630436 ; 0 ; 0 ; 0 ; 0 ; 0 ; 0 ; 0 ; 0 ; -0.0574249757011 ; 0 ; 48.3377802733 ; -4.68547842167 ; -4068.48703279 ; 6276.87280744 ; 0 ; 0 ; 0 ; 0 ; 0 ; 0 ; 0 ; 0 ; 0 ; 0 ; 1 ; 0 ; 0 ; 0 ; 1560345995 ;
50 ; 1560345996 ; 48.281331 ; -4.630436 ; 0 ; 0 ; 0 ; 0 ; 0 ; 0 ; 0 ; 0 ; -0.0674016011436 ; 0 ; 48.3377798117 ; -4.68544719333 ; -4066.17881235 ; 6276.82147245 ; 0 ; 0 ; 0 ; 0 ; 0 ; 0 ; 0 ; 0 ; 0 ; 0 ; 1 ; 0 ; 0 ; 0 ; 1560345996 ;
51 ; 1560345997 ; 48.281331 ; -4.630436 ; 0 ; 0 ; 0 ; 0 ; 0 ; 0 ; 0 ; 0 ; -0.0863134396751 ; 0 ; 48.3377788567 ; -4.68541571333 ; -4063.85202914 ; 6276.71528129 ; 0 ; 0 ; 0 ; 0 ; 0 ; 0 ; 0 ; 0 ; 0 ; 0 ; 1 ; 0 ; 0 ; 0 ; 1560345997 ;
52 ; 1560345998 ; 48.281331 ; -4.630436 ; 0 ; 0 ; 0 ; 0 ; 0 ; 0 ; 0 ; 0 ; -0.119582487412 ; 0 ; 48.3377778033 ; -4.68538357333 ; -4061.47646945 ; 6276.59815597 ; 0 ; 0 ; 0 ; 0 ; 0 ; 0 ; 0 ; 0 ; 0 ; 0 ; 1 ; 0 ; 0 ; 0 ; 1560345998 ;
53 ; 1560345999 ; 48.281331 ; -4.630436 ; 0 ; 0 ; 0 ; 0 ; 0 ; 0 ; 0 ; 0 ; -0.163976503678 ; 0 ; 48.33777657 ; -4.68535067 ; -4059.04450185 ; 6276.46101556 ; 0 ; 0 ; 0 ; 0 ; 0 ; 0 ; 0 ; 0 ; 0 ; 0 ; 1 ; 0 ; 0 ; 0 ; 1560345999 ;
54 ; 1560346000 ; 48.281331 ; -4.630436 ; 0 ; 0 ; 0 ; 0 ; 0 ; 0 ; 0 ; 0 ; -0.201588822671 ; 0 ; 48.337774845 ; -4.68531792833 ; -4056.62452291 ; 6276.26920431 ; 0 ; 0 ; 0 ; 0 ; 0 ; 0 ; 0 ; 0 ; 0 ; 0 ; 1 ; 0 ; 0 ; 0 ; 1560346000 ;
55 ; 1560346001 ; 48.281331 ; -4.630436 ; 0 ; 0 ; 0 ; 0 ; 0 ; 0 ; 0 ; 0 ; -0.218782974549 ; 0 ; 48.337772535 ; -4.685285485 ; -4054.2266418 ; 6276.01234403 ; 0 ; 0 ; 0 ; 0 ; 0 ; 0 ; 0 ; 0 ; 0 ; 0 ; 1 ; 0 ; 0 ; 0 ; 1560346001 ;
56 ; 1560346002 ; 48.281331 ; -4.630436 ; 0 ; 0 ; 0 ; 0 ; 0 ; 0 ; 0 ; 0 ; -0.238370610543 ; 0 ; 48.33776939 ; -4.68525351667 ; -4051.86393668 ; 6275.66263599 ; 0 ; 0 ; 0 ; 0 ; 0 ; 0 ; 0 ; 0 ; 0 ; 0 ; 1 ; 0 ; 0 ; 0 ; 1560346002 ;
57 ; 1560346003 ; 48.281331 ; -4.630436 ; 0 ; 0 ; 0 ; 0 ; 0 ; 0 ; 0 ; 0 ; -0.226307941743 ; 0 ; 48.33776568 ; -4.685220185 ; -4049.40050469 ; 6275.25010281 ; 0 ; 0 ; 0 ; 0 ; 0 ; 0 ; 0 ; 0 ; 0 ; 0 ; 1 ; 0 ; 0 ; 0 ; 1560346003 ;
58 ; 1560346004 ; 48.281331 ; -4.630436 ; 0 ; 0 ; 0 ; 0 ; 0 ; 0 ; 0 ; 0 ; -0.197459293671 ; 0 ; 48.3377624467 ; -4.68518530167 ; -4046.82234228 ; 6274.89057255 ; 0 ; 0 ; 0 ; 0 ; 0 ; 0 ; 0 ; 0 ; 0 ; 0 ; 1 ; 0 ; 0 ; 0 ; 1560346004 ;
59 ; 1560346005 ; 48.281331 ; -4.630436 ; 0 ; 0 ; 0 ; 0 ; 0 ; 0 ; 0 ; 0 ; -0.11678917534 ; 0 ; 48.33775947 ; -4.68515135833 ; -4044.31363975 ; 6274.55958231 ; 0 ; 0 ; 0 ; 0 ; 0 ; 0 ; 0 ; 0 ; 0 ; 0 ; 1 ; 0 ; 0 ; 0 ; 1560346005 ;
60 ; 1560346006 ; 48.281331 ; -4.630436 ; 0 ; 0 ; 0 ; 0 ; 0 ; 0 ; 0 ; 0 ; -0.0358806384285 ; 0 ; 48.3377572117 ; -4.68511928167 ; -4041.94285561 ; 6274.30846711 ; 0 ; 0 ; 0 ; 0 ; 0 ; 0 ; 0 ; 0 ; 0 ; 0 ; 1 ; 0 ; 0 ; 0 ; 1560346006 ;
61 ; 1560346007 ; 48.281331 ; -4.630436 ; 0 ; 0 ; 0 ; 0 ; 0 ; 0 ; 0 ; 0 ; -0.0296612513741 ; 0 ; 48.337756605 ; -4.68508729167 ; -4039.5783464 ; 6274.24100885 ; 0 ; 0 ; 0 ; 0 ; 0 ; 0 ; 0 ; 0 ; 0 ; 0 ; 1 ; 0 ; 0 ; 0 ; 1560346007 ;
62 ; 1560346008 ; 48.281331 ; -4.630436 ; 0 ; 0 ; 0 ; 0 ; 0 ; 0 ; 0 ; 0 ; -0.0576214326103 ; 0 ; 48.3377569917 ; -4.68505398833 ; -4037.11668276 ; 6274.28400422 ; 0 ; 0 ; 0 ; 0 ; 0 ; 0 ; 0 ; 0 ; 0 ; 0 ; 1 ; 0 ; 0 ; 0 ; 1560346008 ;
63 ; 1560346009 ; 48.281331 ; -4.630436 ; 0 ; 0 ; 0 ; 0 ; 0 ; 0 ; 0 ; 0 ; -0.0556085837563 ; 0 ; 48.3377574283 ; -4.68502026333 ; -4034.62384749 ; 6274.33255934 ; 0 ; 0 ; 0 ; 0 ; 0 ; 0 ; 0 ; 0 ; 0 ; 0 ; 1 ; 0 ; 0 ; 0 ; 1560346009 ;
64 ; 1560346010 ; 48.281331 ; -4.630436 ; 0 ; 0 ; 0 ; 0 ; 0 ; 0 ; 0 ; 0 ; -0.0191971791466 ; 0 ; 48.337757855 ; -4.684987255 ; -4032.18398584 ; 6274.38000251 ; 0 ; 0 ; 0 ; 0 ; 0 ; 0 ; 0 ; 0 ; 0 ; 0 ; 1 ; 0 ; 0 ; 0 ; 1560346010 ;
65 ; 1560346011 ; 48.281331 ; -4.630436 ; 0 ; 0 ; 0 ; 0 ; 0 ; 0 ; 0 ; 0 ; -0.0305152667244 ; 0 ; 48.33775821 ; -4.68495579667 ; -4029.85869894 ; 6274.41947671 ; 0 ; 0 ; 0 ; 0 ; 0 ; 0 ; 0 ; 0 ; 0 ; 0 ; 1 ; 0 ; 0 ; 0 ; 1560346011 ;
66 ; 1560346012 ; 48.281331 ; -4.630436 ; 0 ; 0 ; 0 ; 0 ; 0 ; 0 ; 0 ; 0 ; -0.110214783021 ; 0 ; 48.3377588583 ; -4.68492406833 ; -4027.51343171 ; 6274.49156808 ; 0 ; 0 ; 0 ; 0 ; 0 ; 0 ; 0 ; 0 ; 0 ; 0 ; 1 ; 0 ; 0 ; 0 ; 1560346012 ;
67 ; 1560346013 ; 48.281331 ; -4.630436 ; 0 ; 0 ; 0 ; 0 ; 0 ; 0 ; 0 ; 0 ; -0.200692249604 ; 0 ; 48.3377593483 ; -4.68489101167 ; -4025.0699926 ; 6274.5460536 ; 0 ; 0 ; 0 ; 0 ; 0 ; 0 ; 0 ; 0 ; 0 ; 0 ; 1 ; 0 ; 0 ; 0 ; 1560346013 ;
68 ; 1560346014 ; 48.281331 ; -4.630436 ; 0 ; 0 ; 0 ; 0 ; 0 ; 0 ; 0 ; 0 ; -0.23888297207 ; 0 ; 48.3377582183 ; -4.68485696 ; -4022.55313543 ; 6274.42040333 ; 0 ; 0 ; 0 ; 0 ; 0 ; 0 ; 0 ; 0 ; 0 ; 0 ; 1 ; 0 ; 0 ; 0 ; 1560346014 ;
69 ; 1560346015 ; 48.281331 ; -4.630436 ; 0 ; 0 ; 0 ; 0 ; 0 ; 0 ; 0 ; 0 ; -0.241584135361 ; 0 ; 48.3377556417 ; -4.68482431667 ; -4020.14048991 ; 6274.13389107 ; 0 ; 0 ; 0 ; 0 ; 0 ; 0 ; 0 ; 0 ; 0 ; 0 ; 1 ; 0 ; 0 ; 0 ; 1560346015 ;
70 ; 1560346016 ; 48.281331 ; -4.630436 ; 0 ; 0 ; 0 ; 0 ; 0 ; 0 ; 0 ; 0 ; -0.246458126374 ; 0 ; 48.3377515133 ; -4.684792605 ; -4017.79683106 ; 6273.67484135 ; 0 ; 0 ; 0 ; 0 ; 0 ; 0 ; 0 ; 0 ; 0 ; 0 ; 1 ; 0 ; 0 ; 0 ; 1560346016 ;
71 ; 1560346017 ; 48.281331 ; -4.630436 ; 0 ; 0 ; 0 ; 0 ; 0 ; 0 ; 0 ; 0 ; -0.26104183323 ; 0 ; 48.3377468417 ; -4.68476011167 ; -4015.39543732 ; 6273.15537572 ; 0 ; 0 ; 0 ; 0 ; 0 ; 0 ; 0 ; 0 ; 0 ; 0 ; 1 ; 0 ; 0 ; 0 ; 1560346017 ;
72 ; 1560346018 ; 48.281331 ; -4.630436 ; 0 ; 0 ; 0 ; 0 ; 0 ; 0 ; 0 ; 0 ; -0.244171334573 ; 0 ; 48.3377423533 ; -4.68472717667 ; -4012.96138268 ; 6272.65629582 ; 0 ; 0 ; 0 ; 0 ; 0 ; 0 ; 0 ; 0 ; 0 ; 0 ; 1 ; 0 ; 0 ; 0 ; 1560346018 ;
73 ; 1560346019 ; 48.281331 ; -4.630436 ; 0 ; 0 ; 0 ; 0 ; 0 ; 0 ; 0 ; 0 ; -0.23544318802 ; 0 ; 48.3377378583 ; -4.68469468667 ; -4010.56022055 ; 6272.15647462 ; 0 ; 0 ; 0 ; 0 ; 0 ; 0 ; 0 ; 0 ; 0 ; 0 ; 1 ; 0 ; 0 ; 0 ; 1560346019 ;
74 ; 1560346020 ; 48.281331 ; -4.630436 ; 0 ; 0 ; 0 ; 0 ; 0 ; 0 ; 0 ; 0 ; -0.200127793618 ; 0 ; 48.33773444 ; -4.68466251167 ; -4008.18225675 ; 6271.7763733 ; 0 ; 0 ; 0 ; 0 ; 0 ; 0 ; 0 ; 0 ; 0 ; 0 ; 1 ; 0 ; 0 ; 0 ; 1560346020 ;
75 ; 1560346021 ; 48.281331 ; -4.630436 ; 0 ; 0 ; 0 ; 0 ; 0 ; 0 ; 0 ; 0 ; -0.176082445451 ; 0 ; 48.33773164 ; -4.684630145 ; -4005.79007689 ; 6271.46502751 ; 0 ; 0 ; 0 ; 0 ; 0 ; 0 ; 0 ; 0 ; 0 ; 0 ; 1 ; 0 ; 0 ; 0 ; 1560346021 ;
76 ; 1560346022 ; 48.281331 ; -4.630436 ; 0 ; 0 ; 0 ; 0 ; 0 ; 0 ; 0 ; 0 ; -0.135337544747 ; 0 ; 48.3377296183 ; -4.68459655 ; -4003.30704272 ; 6271.24022843 ; 0 ; 0 ; 0 ; 0 ; 0 ; 0 ; 0 ; 0 ; 0 ; 0 ; 1 ; 0 ; 0 ; 0 ; 1560346022 ;
77 ; 1560346023 ; 48.281331 ; -4.630436 ; 0 ; 0 ; 0 ; 0 ; 0 ; 0 ; 0 ; 0 ; -0.101257277795 ; 0 ; 48.33772826 ; -4.684561855 ; -4000.74264917 ; 6271.08918865 ; 0 ; 0 ; 0 ; 0 ; 0 ; 0 ; 0 ; 0 ; 0 ; 0 ; 1 ; 0 ; 0 ; 0 ; 1560346023 ;
78 ; 1560346024 ; 48.281331 ; -4.630436 ; 0 ; 0 ; 0 ; 0 ; 0 ; 0 ; 0 ; 0 ; -0.050831867524 ; 0 ; 48.3377277233 ; -4.68452756833 ; -3998.20837324 ; 6271.02951404 ; 0 ; 0 ; 0 ; 0 ; 0 ; 0 ; 0 ; 0 ; 0 ; 0 ; 1 ; 0 ; 0 ; 0 ; 1560346024 ;
79 ; 1560346025 ; 48.281331 ; -4.630436 ; 0 ; 0 ; 0 ; 0 ; 0 ; 0 ; 0 ; 0 ; 0.0115465390007 ; 0 ; 48.3377280217 ; -4.68449447167 ; -3995.76199133 ; 6271.0626872 ; 0 ; 0 ; 0 ; 0 ; 0 ; 0 ; 0 ; 0 ; 0 ; 0 ; 1 ; 0 ; 0 ; 0 ; 1560346025 ;
80 ; 1560346026 ; 48.281331 ; -4.630436 ; 0 ; 0 ; 0 ; 0 ; 0 ; 0 ; 0 ; 0 ; 0.0285139548103 ; 0 ; 48.337728075 ; -4.68446306167 ; -3993.44029953 ; 6271.06861759 ; 0 ; 0 ; 0 ; 0 ; 0 ; 0 ; 0 ; 0 ; 0 ; 0 ; 1 ; 0 ; 0 ; 0 ; 1560346026 ;
81 ; 1560346027 ; 48.281331 ; -4.630436 ; 0 ; 0 ; 0 ; 0 ; 0 ; 0 ; 0 ; 0 ; 0.00131921642227 ; 0 ; 48.3377281817 ; -4.68443217167 ; -3991.15703966 ; 6271.08047838 ; 0 ; 0 ; 0 ; 0 ; 0 ; 0 ; 0 ; 0 ; 0 ; 0 ; 1 ; 0 ; 0 ; 0 ; 1560346027 ;
82 ; 1560346028 ; 48.281331 ; -4.630436 ; 0 ; 0 ; 0 ; 0 ; 0 ; 0 ; 0 ; 0 ; -0.0197419655998 ; 0 ; 48.3377289567 ; -4.68439991333 ; -3988.77258639 ; 6271.16665445 ; 0 ; 0 ; 0 ; 0 ; 0 ; 0 ; 0 ; 0 ; 0 ; 0 ; 1 ; 0 ; 0 ; 0 ; 1560346028 ;
83 ; 1560346029 ; 48.281331 ; -4.630436 ; 0 ; 0 ; 0 ; 0 ; 0 ; 0 ; 0 ; 0 ; -0.0193693173607 ; 0 ; 48.3377308533 ; -4.68436618333 ; -3986.27926642 ; 6271.37755416 ; 0 ; 0 ; 0 ; 0 ; 0 ; 0 ; 0 ; 0 ; 0 ; 0 ; 1 ; 0 ; 0 ; 0 ; 1560346029 ;
84 ; 1560346030 ; 48.281331 ; -4.630436 ; 0 ; 0 ; 0 ; 0 ; 0 ; 0 ; 0 ; 0 ; -0.011708451577 ; 0 ; 48.3377334417 ; -4.68433226 ; -3983.77160226 ; 6271.6653637 ; 0 ; 0 ; 0 ; 0 ; 0 ; 0 ; 0 ; 0 ; 0 ; 0 ; 1 ; 0 ; 0 ; 0 ; 1560346030 ;
85 ; 1560346031 ; 48.281331 ; -4.630436 ; 0 ; 0 ; 0 ; 0 ; 0 ; 0 ; 0 ; 0 ; -0.0395513308723 ; 0 ; 48.3377362283 ; -4.68429980833 ; -3981.3727019 ; 6271.97522689 ; 0 ; 0 ; 0 ; 0 ; 0 ; 0 ; 0 ; 0 ; 0 ; 0 ; 1 ; 0 ; 0 ; 0 ; 1560346031 ;
86 ; 1560346032 ; 48.281331 ; -4.630436 ; 0 ; 0 ; 0 ; 0 ; 0 ; 0 ; 0 ; 0 ; -0.0909053815086 ; 0 ; 48.3377384483 ; -4.68426762167 ; -3978.99343366 ; 6272.22207963 ; 0 ; 0 ; 0 ; 0 ; 0 ; 0 ; 0 ; 0 ; 0 ; 0 ; 1 ; 0 ; 0 ; 0 ; 1560346032 ;
87 ; 1560346033 ; 48.281331 ; -4.630436 ; 0 ; 0 ; 0 ; 0 ; 0 ; 0 ; 0 ; 0 ; -0.162903381654 ; 0 ; 48.337739195 ; -4.68423436833 ; -3976.5354373 ; 6272.30510518 ; 0 ; 0 ; 0 ; 0 ; 0 ; 0 ; 0 ; 0 ; 0 ; 0 ; 1 ; 0 ; 0 ; 0 ; 1560346033 ;
88 ; 1560346034 ; 48.281331 ; -4.630436 ; 0 ; 0 ; 0 ; 0 ; 0 ; 0 ; 0 ; 0 ; -0.206618501015 ; 0 ; 48.3377380383 ; -4.68420082 ; -3974.05578429 ; 6272.17648971 ; 0 ; 0 ; 0 ; 0 ; 0 ; 0 ; 0 ; 0 ; 0 ; 0 ; 1 ; 0 ; 0 ; 0 ; 1560346034 ;
89 ; 1560346035 ; 48.281331 ; -4.630436 ; 0 ; 0 ; 0 ; 0 ; 0 ; 0 ; 0 ; 0 ; -0.218713356324 ; 0 ; 48.33773503 ; -4.68416813667 ; -3971.64021237 ; 6271.84197831 ; 0 ; 0 ; 0 ; 0 ; 0 ; 0 ; 0 ; 0 ; 0 ; 0 ; 1 ; 0 ; 0 ; 0 ; 1560346035 ;
90 ; 1560346036 ; 48.281331 ; -4.630436 ; 0 ; 0 ; 0 ; 0 ; 0 ; 0 ; 0 ; 0 ; -0.215821935006 ; 0 ; 48.3377318517 ; -4.68413601167 ; -3969.26592292 ; 6271.48856377 ; 0 ; 0 ; 0 ; 0 ; 0 ; 0 ; 0 ; 0 ; 0 ; 0 ; 1 ; 0 ; 0 ; 0 ; 1560346036 ;
91 ; 1560346037 ; 48.281331 ; -4.630436 ; 0 ; 0 ; 0 ; 0 ; 0 ; 0 ; 0 ; 0 ; -0.203579140969 ; 0 ; 48.3377289383 ; -4.68410390333 ; -3966.89284447 ; 6271.16461588 ; 0 ; 0 ; 0 ; 0 ; 0 ; 0 ; 0 ; 0 ; 0 ; 0 ; 1 ; 0 ; 0 ; 0 ; 1560346037 ;
92 ; 1560346038 ; 48.281331 ; -4.630436 ; 0 ; 0 ; 0 ; 0 ; 0 ; 0 ; 0 ; 0 ; -0.184041811295 ; 0 ; 48.3377260233 ; -4.68407182 ; -3964.52161378 ; 6270.84048267 ; 0 ; 0 ; 0 ; 0 ; 0 ; 0 ; 0 ; 0 ; 0 ; 0 ; 1 ; 0 ; 0 ; 0 ; 1560346038 ;
93 ; 1560346039 ; 48.281331 ; -4.630436 ; 0 ; 0 ; 0 ; 0 ; 0 ; 0 ; 0 ; 0 ; -0.182297064133 ; 0 ; 48.3377235183 ; -4.68403858833 ; -3962.06547124 ; 6270.56193938 ; 0 ; 0 ; 0 ; 0 ; 0 ; 0 ; 0 ; 0 ; 0 ; 0 ; 1 ; 0 ; 0 ; 0 ; 1560346039 ;
94 ; 1560346040 ; 48.281331 ; -4.630436 ; 0 ; 0 ; 0 ; 0 ; 0 ; 0 ; 0 ; 0 ; -0.189602686234 ; 0 ; 48.3377218233 ; -4.68400376833 ; -3959.491863 ; 6270.37346398 ; 0 ; 0 ; 0 ; 0 ; 0 ; 0 ; 0 ; 0 ; 0 ; 0 ; 1 ; 0 ; 0 ; 0 ; 1560346040 ;
95 ; 1560346041 ; 48.281331 ; -4.630436 ; 0 ; 0 ; 0 ; 0 ; 0 ; 0 ; 0 ; 0 ; -0.166048599549 ; 0 ; 48.33772065 ; -4.68396852833 ; -3956.88716955 ; 6270.24299526 ; 0 ; 0 ; 0 ; 0 ; 0 ; 0 ; 0 ; 0 ; 0 ; 0 ; 1 ; 0 ; 0 ; 0 ; 1560346041 ;
96 ; 1560346042 ; 48.281331 ; -4.630436 ; 0 ; 0 ; 0 ; 0 ; 0 ; 0 ; 0 ; 0 ; -0.105963660546 ; 0 ; 48.33771908 ; -4.68393425 ; -3954.3535889 ; 6270.06841923 ; 0 ; 0 ; 0 ; 0 ; 0 ; 0 ; 0 ; 0 ; 0 ; 0 ; 1 ; 0 ; 0 ; 0 ; 1560346042 ;
97 ; 1560346043 ; 48.281331 ; -4.630436 ; 0 ; 0 ; 0 ; 0 ; 0 ; 0 ; 0 ; 0 ; -0.0706396830757 ; 0 ; 48.3377177333 ; -4.68390161167 ; -3951.94121231 ; 6269.91867673 ; 0 ; 0 ; 0 ; 0 ; 0 ; 0 ; 0 ; 0 ; 0 ; 0 ; 1 ; 0 ; 0 ; 0 ; 1560346043 ;
98 ; 1560346044 ; 48.281331 ; -4.630436 ; 0 ; 0 ; 0 ; 0 ; 0 ; 0 ; 0 ; 0 ; -0.103274298974 ; 0 ; 48.3377170183 ; -4.683869255 ; -3949.54960621 ; 6269.83917235 ; 0 ; 0 ; 0 ; 0 ; 0 ; 0 ; 0 ; 0 ; 0 ; 0 ; 1 ; 0 ; 0 ; 0 ; 1560346044 ;
99 ; 1560346045 ; 48.281331 ; -4.630436 ; 0 ; 0 ; 0 ; 0 ; 0 ; 0 ; 0 ; 0 ; -0.154267741509 ; 0 ; 48.3377161133 ; -4.68383623667 ; -3947.10910728 ; 6269.73854095 ; 0 ; 0 ; 0 ; 0 ; 0 ; 0 ; 0 ; 0 ; 0 ; 0 ; 1 ; 0 ; 0 ; 0 ; 1560346045 ;
100 ; 1560346046 ; 48.281331 ; -4.630436 ; 0 ; 0 ; 0 ; 0 ; 0 ; 0 ; 0 ; 0 ; -0.18843562729 ; 0 ; 48.3377150067 ; -4.68380321 ; -3944.66800791 ; 6269.61548523 ; 0 ; 0 ; 0 ; 0 ; 0 ; 0 ; 0 ; 0 ; 0 ; 0 ; 1 ; 0 ; 0 ; 0 ; 1560346046 ;
101 ; 1560346047 ; 48.281331 ; -4.630436 ; 0 ; 0 ; 0 ; 0 ; 0 ; 0 ; 0 ; 0 ; -0.19710381157 ; 0 ; 48.3377132967 ; -4.68377032 ; -3942.23705688 ; 6269.4253419 ; 0 ; 0 ; 0 ; 0 ; 0 ; 0 ; 0 ; 0 ; 0 ; 0 ; 1 ; 0 ; 0 ; 0 ; 1560346047 ;
102 ; 1560346048 ; 48.281331 ; -4.630436 ; 0 ; 0 ; 0 ; 0 ; 0 ; 0 ; 0 ; 0 ; -0.210137797662 ; 0 ; 48.337711 ; -4.68373821167 ; -3939.86392837 ; 6269.16996422 ; 0 ; 0 ; 0 ; 0 ; 0 ; 0 ; 0 ; 0 ; 0 ; 0 ; 1 ; 0 ; 0 ; 0 ; 1560346048 ;
103 ; 1560346049 ; 48.281331 ; -4.630436 ; 0 ; 0 ; 0 ; 0 ; 0 ; 0 ; 0 ; 0 ; -0.252136303254 ; 0 ; 48.3377084167 ; -4.68370583167 ; -3937.47074139 ; 6268.88271066 ; 0 ; 0 ; 0 ; 0 ; 0 ; 0 ; 0 ; 0 ; 0 ; 0 ; 1 ; 0 ; 0 ; 0 ; 1560346049 ;
104 ; 1560346050 ; 48.281331 ; -4.630436 ; 0 ; 0 ; 0 ; 0 ; 0 ; 0 ; 0 ; 0 ; -0.274200750657 ; 0 ; 48.337705105 ; -4.68367250333 ; -3935.00751377 ; 6268.51447013 ; 0 ; 0 ; 0 ; 0 ; 0 ; 0 ; 0 ; 0 ; 0 ; 0 ; 1 ; 0 ; 0 ; 0 ; 1560346050 ;
105 ; 1560346051 ; 48.281331 ; -4.630436 ; 0 ; 0 ; 0 ; 0 ; 0 ; 0 ; 0 ; 0 ; -0.263859344788 ; 0 ; 48.33770097 ; -4.68363848167 ; -3932.49310119 ; 6268.05467911 ; 0 ; 0 ; 0 ; 0 ; 0 ; 0 ; 0 ; 0 ; 0 ; 0 ; 1 ; 0 ; 0 ; 0 ; 1560346051 ;
106 ; 1560346052 ; 48.281331 ; -4.630436 ; 0 ; 0 ; 0 ; 0 ; 0 ; 0 ; 0 ; 0 ; -0.240275455781 ; 0 ; 48.337697015 ; -4.68360465 ; -3929.99271829 ; 6267.61490317 ; 0 ; 0 ; 0 ; 0 ; 0 ; 0 ; 0 ; 0 ; 0 ; 0 ; 1 ; 0 ; 0 ; 0 ; 1560346052 ;
107 ; 1560346053 ; 48.281331 ; -4.630436 ; 0 ; 0 ; 0 ; 0 ; 0 ; 0 ; 0 ; 0 ; -0.189863158532 ; 0 ; 48.3376936933 ; -4.683571565 ; -3927.54747653 ; 6267.24555069 ; 0 ; 0 ; 0 ; 0 ; 0 ; 0 ; 0 ; 0 ; 0 ; 0 ; 1 ; 0 ; 0 ; 0 ; 1560346053 ;
108 ; 1560346054 ; 48.281331 ; -4.630436 ; 0 ; 0 ; 0 ; 0 ; 0 ; 0 ; 0 ; 0 ; -0.152402473756 ; 0 ; 48.337690965 ; -4.68353883333 ; -3925.12830562 ; 6266.94217386 ; 0 ; 0 ; 0 ; 0 ; 0 ; 0 ; 0 ; 0 ; 0 ; 0 ; 1 ; 0 ; 0 ; 0 ; 1560346054 ;
109 ; 1560346055 ; 48.281331 ; -4.630436 ; 0 ; 0 ; 0 ; 0 ; 0 ; 0 ; 0 ; 0 ; -0.131616784402 ; 0 ; 48.3376890717 ; -4.68350532667 ; -3922.6517856 ; 6266.7316448 ; 0 ; 0 ; 0 ; 0 ; 0 ; 0 ; 0 ; 0 ; 0 ; 0 ; 1 ; 0 ; 0 ; 0 ; 1560346055 ;
110 ; 1560346056 ; 48.281331 ; -4.630436 ; 0 ; 0 ; 0 ; 0 ; 0 ; 0 ; 0 ; 0 ; -0.143185688325 ; 0 ; 48.3376875633 ; -4.68347124667 ; -3920.13285751 ; 6266.56392579 ; 0 ; 0 ; 0 ; 0 ; 0 ; 0 ; 0 ; 0 ; 0 ; 0 ; 1 ; 0 ; 0 ; 0 ; 1560346056 ;
111 ; 1560346057 ; 48.281331 ; -4.630436 ; 0 ; 0 ; 0 ; 0 ; 0 ; 0 ; 0 ; 0 ; -0.138547254868 ; 0 ; 48.3376859617 ; -4.68343794333 ; -3917.67134423 ; 6266.38582858 ; 0 ; 0 ; 0 ; 0 ; 0 ; 0 ; 0 ; 0 ; 0 ; 0 ; 1 ; 0 ; 0 ; 0 ; 1560346057 ;
112 ; 1560346058 ; 48.281331 ; -4.630436 ; 0 ; 0 ; 0 ; 0 ; 0 ; 0 ; 0 ; 0 ; -0.144388033219 ; 0 ; 48.3376842067 ; -4.68340501833 ; -3915.23780732 ; 6266.19068149 ; 0 ; 0 ; 0 ; 0 ; 0 ; 0 ; 0 ; 0 ; 0 ; 0 ; 1 ; 0 ; 0 ; 0 ; 1560346058 ;
113 ; 1560346059 ; 48.281331 ; -4.630436 ; 0 ; 0 ; 0 ; 0 ; 0 ; 0 ; 0 ; 0 ; -0.148771597215 ; 0 ; 48.3376828483 ; -4.68337231 ; -3912.82025485 ; 6266.03964171 ; 0 ; 0 ; 0 ; 0 ; 0 ; 0 ; 0 ; 0 ; 0 ; 0 ; 1 ; 0 ; 0 ; 0 ; 1560346059 ;
114 ; 1560346060 ; 48.281331 ; -4.630436 ; 0 ; 0 ; 0 ; 0 ; 0 ; 0 ; 0 ; 0 ; -0.168279959031 ; 0 ; 48.33768132 ; -4.68333881 ; -3910.34419876 ; 6265.8696988 ; 0 ; 0 ; 0 ; 0 ; 0 ; 0 ; 0 ; 0 ; 0 ; 0 ; 1 ; 0 ; 0 ; 0 ; 1560346060 ;
115 ; 1560346061 ; 48.281331 ; -4.630436 ; 0 ; 0 ; 0 ; 0 ; 0 ; 0 ; 0 ; 0 ; -0.193315340348 ; 0 ; 48.3376798767 ; -4.68330425833 ; -3907.7904014 ; 6265.70920745 ; 0 ; 0 ; 0 ; 0 ; 0 ; 0 ; 0 ; 0 ; 0 ; 0 ; 1 ; 0 ; 0 ; 0 ; 1560346061 ;
116 ; 1560346062 ; 48.281331 ; -4.630436 ; 0 ; 0 ; 0 ; 0 ; 0 ; 0 ; 0 ; 0 ; -0.223702145882 ; 0 ; 48.3376777733 ; -4.68327000167 ; -3905.25845956 ; 6265.47532746 ; 0 ; 0 ; 0 ; 0 ; 0 ; 0 ; 0 ; 0 ; 0 ; 0 ; 1 ; 0 ; 0 ; 0 ; 1560346062 ;
117 ; 1560346063 ; 48.281331 ; -4.630436 ; 0 ; 0 ; 0 ; 0 ; 0 ; 0 ; 0 ; 0 ; -0.223181678124 ; 0 ; 48.337675015 ; -4.68323676 ; -3902.80159203 ; 6265.16861478 ; 0 ; 0 ; 0 ; 0 ; 0 ; 0 ; 0 ; 0 ; 0 ; 0 ; 1 ; 0 ; 0 ; 0 ; 1560346063 ;
118 ; 1560346064 ; 48.281331 ; -4.630436 ; 0 ; 0 ; 0 ; 0 ; 0 ; 0 ; 0 ; 0 ; -0.245505882569 ; 0 ; 48.3376713033 ; -4.68320477333 ; -3900.43756129 ; 6264.75589628 ; 0 ; 0 ; 0 ; 0 ; 0 ; 0 ; 0 ; 0 ; 0 ; 0 ; 1 ; 0 ; 0 ; 0 ; 1560346064 ;
119 ; 1560346065 ; 48.281331 ; -4.630436 ; 0 ; 0 ; 0 ; 0 ; 0 ; 0 ; 0 ; 0 ; -0.259777857133 ; 0 ; 48.3376670117 ; -4.68317310333 ; -3898.09698117 ; 6264.27868472 ; 0 ; 0 ; 0 ; 0 ; 0 ; 0 ; 0 ; 0 ; 0 ; 0 ; 1 ; 0 ; 0 ; 0 ; 1560346065 ;
120 ; 1560346066 ; 48.281331 ; -4.630436 ; 0 ; 0 ; 0 ; 0 ; 0 ; 0 ; 0 ; 0 ; -0.249375892945 ; 0 ; 48.3376625167 ; -4.68314081667 ; -3895.71083488 ; 6263.77886353 ; 0 ; 0 ; 0 ; 0 ; 0 ; 0 ; 0 ; 0 ; 0 ; 0 ; 1 ; 0 ; 0 ; 0 ; 1560346066 ;
121 ; 1560346067 ; 48.281331 ; -4.630436 ; 0 ; 0 ; 0 ; 0 ; 0 ; 0 ; 0 ; 0 ; -0.270404173203 ; 0 ; 48.337657985 ; -4.683108035 ; -3893.28810272 ; 6263.27496518 ; 0 ; 0 ; 0 ; 0 ; 0 ; 0 ; 0 ; 0 ; 0 ; 0 ; 1 ; 0 ; 0 ; 0 ; 1560346067 ;
122 ; 1560346068 ; 48.281331 ; -4.630436 ; 0 ; 0 ; 0 ; 0 ; 0 ; 0 ; 0 ; 0 ; -0.294614864655 ; 0 ; 48.3376542067 ; -4.683074585 ; -3890.81591233 ; 6262.85483369 ; 0 ; 0 ; 0 ; 0 ; 0 ; 0 ; 0 ; 0 ; 0 ; 0 ; 1 ; 0 ; 0 ; 0 ; 1560346068 ;
123 ; 1560346069 ; 48.281331 ; -4.630436 ; 0 ; 0 ; 0 ; 0 ; 0 ; 0 ; 0 ; 0 ; -0.316305948563 ; 0 ; 48.3376500417 ; -4.683041285 ; -3888.35483842 ; 6262.39170682 ; 0 ; 0 ; 0 ; 0 ; 0 ; 0 ; 0 ; 0 ; 0 ; 0 ; 1 ; 0 ; 0 ; 0 ; 1560346069 ;
124 ; 1560346070 ; 48.281331 ; -4.630436 ; 0 ; 0 ; 0 ; 0 ; 0 ; 0 ; 0 ; 0 ; -0.306907607384 ; 0 ; 48.33764489 ; -4.6830081 ; -3885.90233961 ; 6261.81886762 ; 0 ; 0 ; 0 ; 0 ; 0 ; 0 ; 0 ; 0 ; 0 ; 0 ; 1 ; 0 ; 0 ; 0 ; 1560346070 ;
125 ; 1560346071 ; 48.281331 ; -4.630436 ; 0 ; 0 ; 0 ; 0 ; 0 ; 0 ; 0 ; 0 ; -0.272307707139 ; 0 ; 48.3376401117 ; -4.68297492167 ; -3883.45030464 ; 6261.28754119 ; 0 ; 0 ; 0 ; 0 ; 0 ; 0 ; 0 ; 0 ; 0 ; 0 ; 1 ; 0 ; 0 ; 0 ; 1560346071 ;
126 ; 1560346072 ; 48.281331 ; -4.630436 ; 0 ; 0 ; 0 ; 0 ; 0 ; 0 ; 0 ; 0 ; -0.239488078423 ; 0 ; 48.3376355267 ; -4.68294177667 ; -3881.00071835 ; 6260.77771246 ; 0 ; 0 ; 0 ; 0 ; 0 ; 0 ; 0 ; 0 ; 0 ; 0 ; 1 ; 0 ; 0 ; 0 ; 1560346072 ;
127 ; 1560346073 ; 48.281331 ; -4.630436 ; 0 ; 0 ; 0 ; 0 ; 0 ; 0 ; 0 ; 0 ; -0.181141210862 ; 0 ; 48.3376310567 ; -4.682908945 ; -3878.57428312 ; 6260.28067113 ; 0 ; 0 ; 0 ; 0 ; 0 ; 0 ; 0 ; 0 ; 0 ; 0 ; 1 ; 0 ; 0 ; 0 ; 1560346073 ;
128 ; 1560346074 ; 48.281331 ; -4.630436 ; 0 ; 0 ; 0 ; 0 ; 0 ; 0 ; 0 ; 0 ; -0.149200869866 ; 0 ; 48.3376277867 ; -4.682876115 ; -3876.14787942 ; 6259.91706372 ; 0 ; 0 ; 0 ; 0 ; 0 ; 0 ; 0 ; 0 ; 0 ; 0 ; 1 ; 0 ; 0 ; 0 ; 1560346074 ;
129 ; 1560346075 ; 48.281331 ; -4.630436 ; 0 ; 0 ; 0 ; 0 ; 0 ; 0 ; 0 ; 0 ; -0.126285864182 ; 0 ; 48.3376252617 ; -4.68284297333 ; -3873.69838174 ; 6259.63629653 ; 0 ; 0 ; 0 ; 0 ; 0 ; 0 ; 0 ; 0 ; 0 ; 0 ; 1 ; 0 ; 0 ; 0 ; 1560346075 ;
130 ; 1560346076 ; 48.281331 ; -4.630436 ; 0 ; 0 ; 0 ; 0 ; 0 ; 0 ; 0 ; 0 ; -0.132166696854 ; 0 ; 48.3376230167 ; -4.68280903 ; -3871.1896068 ; 6259.38666392 ; 0 ; 0 ; 0 ; 0 ; 0 ; 0 ; 0 ; 0 ; 0 ; 0 ; 1 ; 0 ; 0 ; 0 ; 1560346076 ;
131 ; 1560346077 ; 48.281331 ; -4.630436 ; 0 ; 0 ; 0 ; 0 ; 0 ; 0 ; 0 ; 0 ; -0.116957498856 ; 0 ; 48.337621545 ; -4.68277522 ; -3868.69062838 ; 6259.22302206 ; 0 ; 0 ; 0 ; 0 ; 0 ; 0 ; 0 ; 0 ; 0 ; 0 ; 1 ; 0 ; 0 ; 0 ; 1560346077 ;
132 ; 1560346078 ; 48.281331 ; -4.630436 ; 0 ; 0 ; 0 ; 0 ; 0 ; 0 ; 0 ; 0 ; -0.117266250916 ; 0 ; 48.3376204467 ; -4.68274195833 ; -3866.23215195 ; 6259.10089296 ; 0 ; 0 ; 0 ; 0 ; 0 ; 0 ; 0 ; 0 ; 0 ; 0 ; 1 ; 0 ; 0 ; 0 ; 1560346078 ;
133 ; 1560346079 ; 48.281331 ; -4.630436 ; 0 ; 0 ; 0 ; 0 ; 0 ; 0 ; 0 ; 0 ; -0.1167873872 ; 0 ; 48.3376198 ; -4.68270927167 ; -3863.81614272 ; 6259.02898691 ; 0 ; 0 ; 0 ; 0 ; 0 ; 0 ; 0 ; 0 ; 0 ; 0 ; 1 ; 0 ; 0 ; 0 ; 1560346079 ;
134 ; 1560346080 ; 48.281331 ; -4.630436 ; 0 ; 0 ; 0 ; 0 ; 0 ; 0 ; 0 ; 0 ; -0.128051711388 ; 0 ; 48.337618625 ; -4.68267687333 ; -3861.42148581 ; 6258.89833287 ; 0 ; 0 ; 0 ; 0 ; 0 ; 0 ; 0 ; 0 ; 0 ; 0 ; 1 ; 0 ; 0 ; 0 ; 1560346080 ;
135 ; 1560346081 ; 48.281331 ; -4.630436 ; 0 ; 0 ; 0 ; 0 ; 0 ; 0 ; 0 ; 0 ; -0.173114610978 ; 0 ; 48.337617415 ; -4.68264374667 ; -3858.97299616 ; 6258.76378701 ; 0 ; 0 ; 0 ; 0 ; 0 ; 0 ; 0 ; 0 ; 0 ; 0 ; 1 ; 0 ; 0 ; 0 ; 1560346081 ;
136 ; 1560346082 ; 48.281331 ; -4.630436 ; 0 ; 0 ; 0 ; 0 ; 0 ; 0 ; 0 ; 0 ; -0.206984592744 ; 0 ; 48.337615555 ; -4.68260993333 ; -3856.4738001 ; 6258.55696445 ; 0 ; 0 ; 0 ; 0 ; 0 ; 0 ; 0 ; 0 ; 0 ; 0 ; 1 ; 0 ; 0 ; 0 ; 1560346082 ;
137 ; 1560346083 ; 48.281331 ; -4.630436 ; 0 ; 0 ; 0 ; 0 ; 0 ; 0 ; 0 ; 0 ; -0.206499530145 ; 0 ; 48.3376131817 ; -4.682576535 ; -3854.0053177 ; 6258.29306182 ; 0 ; 0 ; 0 ; 0 ; 0 ; 0 ; 0 ; 0 ; 0 ; 0 ; 1 ; 0 ; 0 ; 0 ; 1560346083 ;
138 ; 1560346084 ; 48.281331 ; -4.630436 ; 0 ; 0 ; 0 ; 0 ; 0 ; 0 ; 0 ; 0 ; -0.20300514824 ; 0 ; 48.3376108517 ; -4.68254393667 ; -3851.59596436 ; 6258.03397764 ; 0 ; 0 ; 0 ; 0 ; 0 ; 0 ; 0 ; 0 ; 0 ; 0 ; 1 ; 0 ; 0 ; 0 ; 1560346084 ;
139 ; 1560346085 ; 48.281331 ; -4.630436 ; 0 ; 0 ; 0 ; 0 ; 0 ; 0 ; 0 ; 0 ; -0.209249330827 ; 0 ; 48.3376077467 ; -4.682511495 ; -3849.19824946 ; 6257.68871739 ; 0 ; 0 ; 0 ; 0 ; 0 ; 0 ; 0 ; 0 ; 0 ; 0 ; 1 ; 0 ; 0 ; 0 ; 1560346085 ;
140 ; 1560346086 ; 48.281331 ; -4.630436 ; 0 ; 0 ; 0 ; 0 ; 0 ; 0 ; 0 ; 0 ; -0.233968569108 ; 0 ; 48.3376041867 ; -4.68247817167 ; -3846.73539955 ; 6257.29286346 ; 0 ; 0 ; 0 ; 0 ; 0 ; 0 ; 0 ; 0 ; 0 ; 0 ; 1 ; 0 ; 0 ; 0 ; 1560346086 ;
141 ; 1560346087 ; 48.281331 ; -4.630436 ; 0 ; 0 ; 0 ; 0 ; 0 ; 0 ; 0 ; 0 ; -0.232171727486 ; 0 ; 48.337600995 ; -4.68244423333 ; -3844.22706334 ; 6256.93796631 ; 0 ; 0 ; 0 ; 0 ; 0 ; 0 ; 0 ; 0 ; 0 ; 0 ; 1 ; 0 ; 0 ; 0 ; 1560346087 ;
142 ; 1560346088 ; 48.281331 ; -4.630436 ; 0 ; 0 ; 0 ; 0 ; 0 ; 0 ; 0 ; 0 ; -0.23311407692 ; 0 ; 48.337597705 ; -4.68241125 ; -3841.78932377 ; 6256.57213501 ; 0 ; 0 ; 0 ; 0 ; 0 ; 0 ; 0 ; 0 ; 0 ; 0 ; 1 ; 0 ; 0 ; 0 ; 1560346088 ;
143 ; 1560346089 ; 48.281331 ; -4.630436 ; 0 ; 0 ; 0 ; 0 ; 0 ; 0 ; 0 ; 0 ; -0.262252999612 ; 0 ; 48.3375936317 ; -4.68237835 ; -3839.35780252 ; 6256.119201 ; 0 ; 0 ; 0 ; 0 ; 0 ; 0 ; 0 ; 0 ; 0 ; 0 ; 1 ; 0 ; 0 ; 0 ; 1560346089 ;
144 ; 1560346090 ; 48.281331 ; -4.630436 ; 0 ; 0 ; 0 ; 0 ; 0 ; 0 ; 0 ; 0 ; -0.30056579239 ; 0 ; 48.3375899233 ; -4.68234583667 ; -3836.95483417 ; 6255.70685315 ; 0 ; 0 ; 0 ; 0 ; 0 ; 0 ; 0 ; 0 ; 0 ; 0 ; 1 ; 0 ; 0 ; 0 ; 1560346090 ;
145 ; 1560346091 ; 48.281331 ; -4.630436 ; 0 ; 0 ; 0 ; 0 ; 0 ; 0 ; 0 ; 0 ; -0.310875250169 ; 0 ; 48.337585795 ; -4.68231239333 ; -3834.4831554 ; 6255.24780343 ; 0 ; 0 ; 0 ; 0 ; 0 ; 0 ; 0 ; 0 ; 0 ; 0 ; 1 ; 0 ; 0 ; 0 ; 1560346091 ;
146 ; 1560346092 ; 48.281331 ; -4.630436 ; 0 ; 0 ; 0 ; 0 ; 0 ; 0 ; 0 ; 0 ; -0.293960048028 ; 0 ; 48.337580685 ; -4.68227841167 ; -3831.9717587 ; 6254.67959735 ; 0 ; 0 ; 0 ; 0 ; 0 ; 0 ; 0 ; 0 ; 0 ; 0 ; 1 ; 0 ; 0 ; 0 ; 1560346092 ;
147 ; 1560346093 ; 48.281331 ; -4.630436 ; 0 ; 0 ; 0 ; 0 ; 0 ; 0 ; 0 ; 0 ; -0.253747893639 ; 0 ; 48.3375762433 ; -4.68224472667 ; -3829.48223963 ; 6254.18570655 ; 0 ; 0 ; 0 ; 0 ; 0 ; 0 ; 0 ; 0 ; 0 ; 0 ; 1 ; 0 ; 0 ; 0 ; 1560346093 ;
148 ; 1560346094 ; 48.281331 ; -4.630436 ; 0 ; 0 ; 0 ; 0 ; 0 ; 0 ; 0 ; 0 ; -0.21174545414 ; 0 ; 48.3375721817 ; -4.68221165667 ; -3827.03814982 ; 6253.73406983 ; 0 ; 0 ; 0 ; 0 ; 0 ; 0 ; 0 ; 0 ; 0 ; 0 ; 1 ; 0 ; 0 ; 0 ; 1560346094 ;
149 ; 1560346095 ; 48.281331 ; -4.630436 ; 0 ; 0 ; 0 ; 0 ; 0 ; 0 ; 0 ; 0 ; -0.151704264947 ; 0 ; 48.3375682383 ; -4.68217950833 ; -3824.66217645 ; 6253.29559117 ; 0 ; 0 ; 0 ; 0 ; 0 ; 0 ; 0 ; 0 ; 0 ; 0 ; 1 ; 0 ; 0 ; 0 ; 1560346095 ;
150 ; 1560346096 ; 48.281331 ; -4.630436 ; 0 ; 0 ; 0 ; 0 ; 0 ; 0 ; 0 ; 0 ; -0.157903028794 ; 0 ; 48.3375648333 ; -4.68214713333 ; -3822.26940811 ; 6252.91697244 ; 0 ; 0 ; 0 ; 0 ; 0 ; 0 ; 0 ; 0 ; 0 ; 0 ; 1 ; 0 ; 0 ; 0 ; 1560346096 ;
151 ; 1560346097 ; 48.281331 ; -4.630436 ; 0 ; 0 ; 0 ; 0 ; 0 ; 0 ; 0 ; 0 ; -0.183307005235 ; 0 ; 48.3375624217 ; -4.68211347167 ; -3819.78146003 ; 6252.64880734 ; 0 ; 0 ; 0 ; 0 ; 0 ; 0 ; 0 ; 0 ; 0 ; 0 ; 1 ; 0 ; 0 ; 0 ; 1560346097 ;
152 ; 1560346098 ; 48.281331 ; -4.630436 ; 0 ; 0 ; 0 ; 0 ; 0 ; 0 ; 0 ; 0 ; -0.192790938683 ; 0 ; 48.3375605917 ; -4.68207851167 ; -3817.19750082 ; 6252.44532063 ; 0 ; 0 ; 0 ; 0 ; 0 ; 0 ; 0 ; 0 ; 0 ; 0 ; 1 ; 0 ; 0 ; 0 ; 1560346098 ;
153 ; 1560346099 ; 48.281331 ; -4.630436 ; 0 ; 0 ; 0 ; 0 ; 0 ; 0 ; 0 ; 0 ; -0.166834427186 ; 0 ; 48.3375592217 ; -4.68204390667 ; -3814.63974711 ; 6252.29298358 ; 0 ; 0 ; 0 ; 0 ; 0 ; 0 ; 0 ; 0 ; 0 ; 0 ; 1 ; 0 ; 0 ; 0 ; 1560346099 ;
154 ; 1560346100 ; 48.281331 ; -4.630436 ; 0 ; 0 ; 0 ; 0 ; 0 ; 0 ; 0 ; 0 ; -0.151273442574 ; 0 ; 48.3375575383 ; -4.68201083833 ; -3812.19560065 ; 6252.10580545 ; 0 ; 0 ; 0 ; 0 ; 0 ; 0 ; 0 ; 0 ; 0 ; 0 ; 1 ; 0 ; 0 ; 0 ; 1560346100 ;
155 ; 1560346101 ; 48.281331 ; -4.630436 ; 0 ; 0 ; 0 ; 0 ; 0 ; 0 ; 0 ; 0 ; -0.15487833149 ; 0 ; 48.33755542 ; -4.68197851833 ; -3809.80680019 ; 6251.87025753 ; 0 ; 0 ; 0 ; 0 ; 0 ; 0 ; 0 ; 0 ; 0 ; 0 ; 1 ; 0 ; 0 ; 0 ; 1560346101 ;
156 ; 1560346102 ; 48.281331 ; -4.630436 ; 0 ; 0 ; 0 ; 0 ; 0 ; 0 ; 0 ; 0 ; -0.168200565644 ; 0 ; 48.3375530117 ; -4.68194564333 ; -3807.37699792 ; 6251.60246308 ; 0 ; 0 ; 0 ; 0 ; 0 ; 0 ; 0 ; 0 ; 0 ; 0 ; 1 ; 0 ; 0 ; 0 ; 1560346102 ;
157 ; 1560346103 ; 48.281331 ; -4.630436 ; 0 ; 0 ; 0 ; 0 ; 0 ; 0 ; 0 ; 0 ; -0.224534941979 ; 0 ; 48.33755026 ; -4.68191251167 ; -3804.92824931 ; 6251.29649171 ; 0 ; 0 ; 0 ; 0 ; 0 ; 0 ; 0 ; 0 ; 0 ; 0 ; 1 ; 0 ; 0 ; 0 ; 1560346103 ;
158 ; 1560346104 ; 48.281331 ; -4.630436 ; 0 ; 0 ; 0 ; 0 ; 0 ; 0 ; 0 ; 0 ; -0.229633642503 ; 0 ; 48.3375476217 ; -4.68187887667 ; -3802.4422877 ; 6251.00312243 ; 0 ; 0 ; 0 ; 0 ; 0 ; 0 ; 0 ; 0 ; 0 ; 0 ; 1 ; 0 ; 0 ; 0 ; 1560346104 ;
159 ; 1560346105 ; 48.281331 ; -4.630436 ; 0 ; 0 ; 0 ; 0 ; 0 ; 0 ; 0 ; 0 ; -0.212853623696 ; 0 ; 48.3375443633 ; -4.681845235 ; -3799.95587927 ; 6250.64081229 ; 0 ; 0 ; 0 ; 0 ; 0 ; 0 ; 0 ; 0 ; 0 ; 0 ; 1 ; 0 ; 0 ; 0 ; 1560346105 ;
160 ; 1560346106 ; 48.281331 ; -4.630436 ; 0 ; 0 ; 0 ; 0 ; 0 ; 0 ; 0 ; 0 ; -0.212761951752 ; 0 ; 48.3375409183 ; -4.68181188167 ; -3797.49079682 ; 6250.25774577 ; 0 ; 0 ; 0 ; 0 ; 0 ; 0 ; 0 ; 0 ; 0 ; 0 ; 1 ; 0 ; 0 ; 0 ; 1560346106 ;
161 ; 1560346107 ; 48.281331 ; -4.630436 ; 0 ; 0 ; 0 ; 0 ; 0 ; 0 ; 0 ; 0 ; -0.198443366357 ; 0 ; 48.3375376617 ; -4.68177886833 ; -3795.0508314 ; 6249.89562096 ; 0 ; 0 ; 0 ; 0 ; 0 ; 0 ; 0 ; 0 ; 0 ; 0 ; 1 ; 0 ; 0 ; 0 ; 1560346107 ;
162 ; 1560346108 ; 48.281331 ; -4.630436 ; 0 ; 0 ; 0 ; 0 ; 0 ; 0 ; 0 ; 0 ; -0.175906015702 ; 0 ; 48.3375346983 ; -4.68174611667 ; -3792.63018515 ; 6249.56611333 ; 0 ; 0 ; 0 ; 0 ; 0 ; 0 ; 0 ; 0 ; 0 ; 0 ; 1 ; 0 ; 0 ; 0 ; 1560346108 ;
163 ; 1560346109 ; 48.281331 ; -4.630436 ; 0 ; 0 ; 0 ; 0 ; 0 ; 0 ; 0 ; 0 ; -0.197768164941 ; 0 ; 48.3375322367 ; -4.68171271 ; -3790.16108646 ; 6249.29238848 ; 0 ; 0 ; 0 ; 0 ; 0 ; 0 ; 0 ; 0 ; 0 ; 0 ; 1 ; 0 ; 0 ; 0 ; 1560346109 ;
164 ; 1560346110 ; 48.281331 ; -4.630436 ; 0 ; 0 ; 0 ; 0 ; 0 ; 0 ; 0 ; 0 ; -0.219337297746 ; 0 ; 48.3375297783 ; -4.68167845667 ; -3787.6294052 ; 6249.01903429 ; 0 ; 0 ; 0 ; 0 ; 0 ; 0 ; 0 ; 0 ; 0 ; 0 ; 1 ; 0 ; 0 ; 0 ; 1560346110 ;
165 ; 1560346111 ; 48.281331 ; -4.630436 ; 0 ; 0 ; 0 ; 0 ; 0 ; 0 ; 0 ; 0 ; -0.241076303788 ; 0 ; 48.3375271 ; -4.68164437333 ; -3785.11030572 ; 6248.72121721 ; 0 ; 0 ; 0 ; 0 ; 0 ; 0 ; 0 ; 0 ; 0 ; 0 ; 1 ; 0 ; 0 ; 0 ; 1560346111 ;
166 ; 1560346112 ; 48.281331 ; -4.630436 ; 0 ; 0 ; 0 ; 0 ; 0 ; 0 ; 0 ; 0 ; -0.230712128945 ; 0 ; 48.3375233433 ; -4.681610915 ; -3782.63748339 ; 6248.30349494 ; 0 ; 0 ; 0 ; 0 ; 0 ; 0 ; 0 ; 0 ; 0 ; 0 ; 1 ; 0 ; 0 ; 0 ; 1560346112 ;
167 ; 1560346113 ; 48.281331 ; -4.630436 ; 0 ; 0 ; 0 ; 0 ; 0 ; 0 ; 0 ; 0 ; -0.208287073441 ; 0 ; 48.3375193133 ; -4.68157819167 ; -3780.21900912 ; 6247.85537938 ; 0 ; 0 ; 0 ; 0 ; 0 ; 0 ; 0 ; 0 ; 0 ; 0 ; 1 ; 0 ; 0 ; 0 ; 1560346113 ;
168 ; 1560346114 ; 48.281331 ; -4.630436 ; 0 ; 0 ; 0 ; 0 ; 0 ; 0 ; 0 ; 0 ; -0.240816904374 ; 0 ; 48.3375157967 ; -4.68154595833 ; -3777.83671521 ; 6247.46434389 ; 0 ; 0 ; 0 ; 0 ; 0 ; 0 ; 0 ; 0 ; 0 ; 0 ; 1 ; 0 ; 0 ; 0 ; 1560346114 ;
169 ; 1560346115 ; 48.281331 ; -4.630436 ; 0 ; 0 ; 0 ; 0 ; 0 ; 0 ; 0 ; 0 ; -0.268246008225 ; 0 ; 48.337512365 ; -4.68151329167 ; -3775.42238446 ; 6247.08275997 ; 0 ; 0 ; 0 ; 0 ; 0 ; 0 ; 0 ; 0 ; 0 ; 0 ; 1 ; 0 ; 0 ; 0 ; 1560346115 ;
170 ; 1560346116 ; 48.281331 ; -4.630436 ; 0 ; 0 ; 0 ; 0 ; 0 ; 0 ; 0 ; 0 ; -0.286679936715 ; 0 ; 48.337508825 ; -4.68148067167 ; -3773.0115108 ; 6246.68912993 ; 0 ; 0 ; 0 ; 0 ; 0 ; 0 ; 0 ; 0 ; 0 ; 0 ; 1 ; 0 ; 0 ; 0 ; 1560346116 ;
171 ; 1560346117 ; 48.281331 ; -4.630436 ; 0 ; 0 ; 0 ; 0 ; 0 ; 0 ; 0 ; 0 ; -0.294298125573 ; 0 ; 48.337503645 ; -4.68144853 ; -3770.63611454 ; 6246.11314021 ; 0 ; 0 ; 0 ; 0 ; 0 ; 0 ; 0 ; 0 ; 0 ; 0 ; 1 ; 0 ; 0 ; 0 ; 1560346117 ;
172 ; 1560346118 ; 48.281331 ; -4.630436 ; 0 ; 0 ; 0 ; 0 ; 0 ; 0 ; 0 ; 0 ; -0.304211689301 ; 0 ; 48.3374985533 ; -4.68141556833 ; -3768.20010024 ; 6245.5469727 ; 0 ; 0 ; 0 ; 0 ; 0 ; 0 ; 0 ; 0 ; 0 ; 0 ; 1 ; 0 ; 0 ; 0 ; 1560346118 ;
173 ; 1560346119 ; 48.281331 ; -4.630436 ; 0 ; 0 ; 0 ; 0 ; 0 ; 0 ; 0 ; 0 ; -0.339948965379 ; 0 ; 48.3374941183 ; -4.68138213667 ; -3765.72929648 ; 6245.0538232 ; 0 ; 0 ; 0 ; 0 ; 0 ; 0 ; 0 ; 0 ; 0 ; 0 ; 1 ; 0 ; 0 ; 0 ; 1560346119 ;
174 ; 1560346120 ; 48.281331 ; -4.630436 ; 0 ; 0 ; 0 ; 0 ; 0 ; 0 ; 0 ; 0 ; -0.36780924923 ; 0 ; 48.3374886817 ; -4.681348835 ; -3763.26817529 ; 6244.44929345 ; 0 ; 0 ; 0 ; 0 ; 0 ; 0 ; 0 ; 0 ; 0 ; 0 ; 1 ; 0 ; 0 ; 0 ; 1560346120 ;
175 ; 1560346121 ; 48.281331 ; -4.630436 ; 0 ; 0 ; 0 ; 0 ; 0 ; 0 ; 0 ; 0 ; -0.391547037431 ; 0 ; 48.337482225 ; -4.68131608333 ; -3760.84778258 ; 6243.73134488 ; 0 ; 0 ; 0 ; 0 ; 0 ; 0 ; 0 ; 0 ; 0 ; 0 ; 1 ; 0 ; 0 ; 0 ; 1560346121 ;
176 ; 1560346122 ; 48.281331 ; -4.630436 ; 0 ; 0 ; 0 ; 0 ; 0 ; 0 ; 0 ; 0 ; -0.396095110246 ; 0 ; 48.3374753883 ; -4.68128354 ; -3758.44281641 ; 6242.97114223 ; 0 ; 0 ; 0 ; 0 ; 0 ; 0 ; 0 ; 0 ; 0 ; 0 ; 1 ; 0 ; 0 ; 0 ; 1560346122 ;
177 ; 1560346123 ; 48.281331 ; -4.630436 ; 0 ; 0 ; 0 ; 0 ; 0 ; 0 ; 0 ; 0 ; -0.3663947118 ; 0 ; 48.3374679383 ; -4.68125232333 ; -3756.13595659 ; 6242.14274002 ; 0 ; 0 ; 0 ; 0 ; 0 ; 0 ; 0 ; 0 ; 0 ; 0 ; 1 ; 0 ; 0 ; 0 ; 1560346123 ;
178 ; 1560346124 ; 48.281331 ; -4.630436 ; 0 ; 0 ; 0 ; 0 ; 0 ; 0 ; 0 ; 0 ; -0.296840025254 ; 0 ; 48.3374607333 ; -4.68122091333 ; -3753.81478764 ; 6241.34158058 ; 0 ; 0 ; 0 ; 0 ; 0 ; 0 ; 0 ; 0 ; 0 ; 0 ; 1 ; 0 ; 0 ; 0 ; 1560346124 ;
179 ; 1560346125 ; 48.281331 ; -4.630436 ; 0 ; 0 ; 0 ; 0 ; 0 ; 0 ; 0 ; 0 ; -0.229396535226 ; 0 ; 48.3374546417 ; -4.68118826667 ; -3751.40212672 ; 6240.66421815 ; 0 ; 0 ; 0 ; 0 ; 0 ; 0 ; 0 ; 0 ; 0 ; 0 ; 1 ; 0 ; 0 ; 0 ; 1560346125 ;
180 ; 1560346126 ; 48.281331 ; -4.630436 ; 0 ; 0 ; 0 ; 0 ; 0 ; 0 ; 0 ; 0 ; -0.188729597398 ; 0 ; 48.3374498717 ; -4.68115538333 ; -3748.97187459 ; 6240.13381835 ; 0 ; 0 ; 0 ; 0 ; 0 ; 0 ; 0 ; 0 ; 0 ; 0 ; 1 ; 0 ; 0 ; 0 ; 1560346126 ;
181 ; 1560346127 ; 48.281331 ; -4.630436 ; 0 ; 0 ; 0 ; 0 ; 0 ; 0 ; 0 ; 0 ; -0.174660397836 ; 0 ; 48.3374462717 ; -4.68112274667 ; -3746.55976862 ; 6239.73351661 ; 0 ; 0 ; 0 ; 0 ; 0 ; 0 ; 0 ; 0 ; 0 ; 0 ; 1 ; 0 ; 0 ; 0 ; 1560346127 ;
182 ; 1560346128 ; 48.281331 ; -4.630436 ; 0 ; 0 ; 0 ; 0 ; 0 ; 0 ; 0 ; 0 ; -0.144626928635 ; 0 ; 48.3374436367 ; -4.68108992333 ; -3744.13379379 ; 6239.44051798 ; 0 ; 0 ; 0 ; 0 ; 0 ; 0 ; 0 ; 0 ; 0 ; 0 ; 1 ; 0 ; 0 ; 0 ; 1560346128 ;
183 ; 1560346129 ; 48.281331 ; -4.630436 ; 0 ; 0 ; 0 ; 0 ; 0 ; 0 ; 0 ; 0 ; -0.107062412568 ; 0 ; 48.3374412733 ; -4.681056905 ; -3741.69338516 ; 6239.17772731 ; 0 ; 0 ; 0 ; 0 ; 0 ; 0 ; 0 ; 0 ; 0 ; 0 ; 1 ; 0 ; 0 ; 0 ; 1560346129 ;
184 ; 1560346130 ; 48.281331 ; -4.630436 ; 0 ; 0 ; 0 ; 0 ; 0 ; 0 ; 0 ; 0 ; -0.08491153843 ; 0 ; 48.337439705 ; -4.681023575 ; -3739.22988085 ; 6239.0033366 ; 0 ; 0 ; 0 ; 0 ; 0 ; 0 ; 0 ; 0 ; 0 ; 0 ; 1 ; 0 ; 0 ; 0 ; 1560346130 ;
185 ; 1560346131 ; 48.281331 ; -4.630436 ; 0 ; 0 ; 0 ; 0 ; 0 ; 0 ; 0 ; 0 ; -0.126774741479 ; 0 ; 48.337438725 ; -4.68099069833 ; -3736.79984185 ; 6238.89436557 ; 0 ; 0 ; 0 ; 0 ; 0 ; 0 ; 0 ; 0 ; 0 ; 0 ; 1 ; 0 ; 0 ; 0 ; 1560346131 ;
186 ; 1560346132 ; 48.281331 ; -4.630436 ; 0 ; 0 ; 0 ; 0 ; 0 ; 0 ; 0 ; 0 ; -0.147375060387 ; 0 ; 48.33743746 ; -4.68095740167 ; -3734.33877891 ; 6238.75370399 ; 0 ; 0 ; 0 ; 0 ; 0 ; 0 ; 0 ; 0 ; 0 ; 0 ; 1 ; 0 ; 0 ; 0 ; 1560346132 ;
187 ; 1560346133 ; 48.281331 ; -4.630436 ; 0 ; 0 ; 0 ; 0 ; 0 ; 0 ; 0 ; 0 ; -0.145454479523 ; 0 ; 48.33743578 ; -4.68092522667 ; -3731.96065532 ; 6238.56689651 ; 0 ; 0 ; 0 ; 0 ; 0 ; 0 ; 0 ; 0 ; 0 ; 0 ; 1 ; 0 ; 0 ; 0 ; 1560346133 ;
188 ; 1560346134 ; 48.281331 ; -4.630436 ; 0 ; 0 ; 0 ; 0 ; 0 ; 0 ; 0 ; 0 ; -0.111316157647 ; 0 ; 48.3374343533 ; -4.68089410667 ; -3729.6604944 ; 6238.40825841 ; 0 ; 0 ; 0 ; 0 ; 0 ; 0 ; 0 ; 0 ; 0 ; 0 ; 1 ; 0 ; 0 ; 0 ; 1560346134 ;
189 ; 1560346135 ; 48.281331 ; -4.630436 ; 0 ; 0 ; 0 ; 0 ; 0 ; 0 ; 0 ; 0 ; -0.124636007615 ; 0 ; 48.3374323217 ; -4.68086231667 ; -3727.31085387 ; 6238.18234739 ; 0 ; 0 ; 0 ; 0 ; 0 ; 0 ; 0 ; 0 ; 0 ; 0 ; 1 ; 0 ; 0 ; 0 ; 1560346135 ;
190 ; 1560346136 ; 48.281331 ; -4.630436 ; 0 ; 0 ; 0 ; 0 ; 0 ; 0 ; 0 ; 0 ; -0.100600553819 ; 0 ; 48.3374311467 ; -4.68082909667 ; -3724.85545071 ; 6238.05169335 ; 0 ; 0 ; 0 ; 0 ; 0 ; 0 ; 0 ; 0 ; 0 ; 0 ; 1 ; 0 ; 0 ; 0 ; 1560346136 ;
191 ; 1560346137 ; 48.281331 ; -4.630436 ; 0 ; 0 ; 0 ; 0 ; 0 ; 0 ; 0 ; 0 ; -0.135286642381 ; 0 ; 48.3374296417 ; -4.68079464667 ; -3722.30915486 ; 6237.88434498 ; 0 ; 0 ; 0 ; 0 ; 0 ; 0 ; 0 ; 0 ; 0 ; 0 ; 1 ; 0 ; 0 ; 0 ; 1560346137 ;
192 ; 1560346138 ; 48.281331 ; -4.630436 ; 0 ; 0 ; 0 ; 0 ; 0 ; 0 ; 0 ; 0 ; -0.165473533936 ; 0 ; 48.3374282533 ; -4.68076070333 ; -3719.80030112 ; 6237.72996936 ; 0 ; 0 ; 0 ; 0 ; 0 ; 0 ; 0 ; 0 ; 0 ; 0 ; 1 ; 0 ; 0 ; 0 ; 1560346138 ;
193 ; 1560346139 ; 48.281331 ; -4.630436 ; 0 ; 0 ; 0 ; 0 ; 0 ; 0 ; 0 ; 0 ; -0.201501323052 ; 0 ; 48.3374266083 ; -4.68072876667 ; -3717.43979071 ; 6237.54705371 ; 0 ; 0 ; 0 ; 0 ; 0 ; 0 ; 0 ; 0 ; 0 ; 0 ; 1 ; 0 ; 0 ; 0 ; 1560346139 ;
194 ; 1560346140 ; 48.281331 ; -4.630436 ; 0 ; 0 ; 0 ; 0 ; 0 ; 0 ; 0 ; 0 ; -0.16778512127 ; 0 ; 48.337423955 ; -4.68069687 ; -3715.08231027 ; 6237.2520165 ; 0 ; 0 ; 0 ; 0 ; 0 ; 0 ; 0 ; 0 ; 0 ; 0 ; 1 ; 0 ; 0 ; 0 ; 1560346140 ;
195 ; 1560346141 ; 48.281331 ; -4.630436 ; 0 ; 0 ; 0 ; 0 ; 0 ; 0 ; 0 ; 0 ; -0.180497599908 ; 0 ; 48.3374209533 ; -4.68066466167 ; -3712.7018178 ; 6236.9182464 ; 0 ; 0 ; 0 ; 0 ; 0 ; 0 ; 0 ; 0 ; 0 ; 0 ; 1 ; 0 ; 0 ; 0 ; 1560346141 ;
196 ; 1560346142 ; 48.281331 ; -4.630436 ; 0 ; 0 ; 0 ; 0 ; 0 ; 0 ; 0 ; 0 ; -0.205703092881 ; 0 ; 48.3374180833 ; -4.680632495 ; -3710.3243953 ; 6236.59911696 ; 0 ; 0 ; 0 ; 0 ; 0 ; 0 ; 0 ; 0 ; 0 ; 0 ; 1 ; 0 ; 0 ; 0 ; 1560346142 ;
197 ; 1560346143 ; 48.281331 ; -4.630436 ; 0 ; 0 ; 0 ; 0 ; 0 ; 0 ; 0 ; 0 ; -0.226243687936 ; 0 ; 48.33741506 ; -4.68059917 ; -3707.8613643 ; 6236.26293763 ; 0 ; 0 ; 0 ; 0 ; 0 ; 0 ; 0 ; 0 ; 0 ; 0 ; 1 ; 0 ; 0 ; 0 ; 1560346143 ;
198 ; 1560346144 ; 48.281331 ; -4.630436 ; 0 ; 0 ; 0 ; 0 ; 0 ; 0 ; 0 ; 0 ; -0.226909591027 ; 0 ; 48.33741239 ; -4.680565835 ; -3705.39756818 ; 6235.96604717 ; -3705.39756818 ; 6235.96604717 ; -2446.35551798 ; 6452.87489621 ; 0 ; 0 ; 0 ; -4.00468707085e-08 ; 0 ; 0 ; 1 ; 0 ; 0 ; 0.170732799069 ; 1560346144 ;
199 ; 1560346145 ; 48.281331 ; -4.630436 ; 0 ; 0 ; 0 ; 0 ; 0 ; 0 ; 0 ; 0 ; -0.221326900788 ; 0 ; 48.3374096167 ; -4.68053307667 ; -3702.9764042 ; 6235.65766658 ; -3702.9764042 ; 6235.65766658 ; -2446.35551798 ; 6452.87489621 ; 0 ; 0 ; 0 ; -2.03028321266e-07 ; 0 ; 0 ; 1 ; -0.136990081923 ; 0 ; 0.171293336155 ; 1560346145 ;
200 ; 1560346146 ; 48.281331 ; -4.630436 ; 0 ; 0 ; 0 ; 0 ; 0 ; 0 ; 0 ; 0 ; -0.227258635827 ; 0 ; 48.337406325 ; -4.68050104833 ; -3700.60923628 ; 6235.29164995 ; -3700.60923628 ; 6235.29164995 ; -2446.35551798 ; 6452.87489621 ; 0 ; 0 ; 0 ; -2.03028321266e-07 ; 0 ; 0 ; 1 ; -0.139808993483 ; 0 ; 0.171293336155 ; 1560346146 ;
201 ; 1560346147 ; 48.281331 ; -4.630436 ; 0 ; 0 ; 0 ; 0 ; 0 ; 0 ; 0 ; 0 ; -0.238318396874 ; 0 ; 48.33740221 ; -4.68046859667 ; -3698.21083666 ; 6234.83408282 ; -3698.21083666 ; 6234.83408282 ; -2446.35551798 ; 6452.87489621 ; 0 ; 0 ; 0 ; -1.16415321827e-07 ; 0 ; 0 ; 1 ; -0.142818813643 ; 0 ; 0.172570598219 ; 1560346147 ;
202 ; 1560346148 ; 48.281331 ; -4.630436 ; 0 ; 0 ; 0 ; 0 ; 0 ; 0 ; 0 ; 0 ; -0.211233450242 ; 0 ; 48.3373977633 ; -4.68043625167 ; -3695.82034508 ; 6234.33963605 ; -3695.82034508 ; 6234.33963605 ; -2446.35551798 ; 6452.87489621 ; 0 ; 0 ; 0 ; 5.4482370615e-08 ; 0 ; 0 ; 1 ; -0.136357039091 ; 0 ; 0.173277910733 ; 1560346148 ;
203 ; 1560346149 ; 48.281331 ; -4.630436 ; 0 ; 0 ; 0 ; 0 ; 0 ; 0 ; 0 ; 0 ; -0.180031849213 ; 0 ; 48.3373944833 ; -4.680403855 ; -3693.42594956 ; 6233.97491669 ; -3693.42594956 ; 6233.97491669 ; -2446.35551798 ; 6452.87489621 ; 0 ; 0 ; 0 ; 5.4482370615e-08 ; 0 ; 0 ; 1 ; -0.123789593884 ; 0 ; 0.173277910733 ; 1560346149 ;
204 ; 1560346150 ; 48.281331 ; -4.630436 ; 0 ; 0 ; 0 ; 0 ; 0 ; 0 ; 0 ; 0 ; -0.163765145608 ; 0 ; 48.3373916333 ; -4.68037083 ; -3690.98507868 ; 6233.65801115 ; -3690.98507868 ; 6233.65801115 ; -2446.35551798 ; 6452.87489621 ; 0 ; 0 ; 0 ; -1.58324837685e-08 ; 0 ; 0 ; 1 ; -0.117110806926 ; 0 ; 0.174468155644 ; 1560346150 ;
205 ; 1560346151 ; 48.281331 ; -4.630436 ; 0 ; 0 ; 0 ; 0 ; 0 ; 0 ; 0 ; 0 ; -0.14887471325 ; 0 ; 48.3373901083 ; -4.68033688833 ; -3688.4763553 ; 6233.48843888 ; -3688.4763553 ; 6233.48843888 ; -2446.35551798 ; 6452.87489621 ; 0 ; 0 ; 0 ; -1.97906047106e-07 ; 0 ; 0 ; 1 ; -0.112823184662 ; 0 ; 0.174945424538 ; 1560346151 ;
206 ; 1560346152 ; 48.281331 ; -4.630436 ; 0 ; 0 ; 0 ; 0 ; 0 ; 0 ; 0 ; 0 ; -0.12925620205 ; 0 ; 48.3373886717 ; -4.68030391167 ; -3686.03895436 ; 6233.32868884 ; -3686.03895436 ; 6233.32868884 ; -2446.35551798 ; 6452.87489621 ; 0 ; 0 ; 0 ; -1.97906047106e-07 ; 0 ; 0 ; 1 ; -0.107750763827 ; 0 ; 0.174945424538 ; 1560346152 ;
207 ; 1560346153 ; 48.281331 ; -4.630436 ; 0 ; 0 ; 0 ; 0 ; 0 ; 0 ; 0 ; 0 ; -0.0832061303337 ; 0 ; 48.337386905 ; -4.68027162167 ; -3683.65233282 ; 6233.13224447 ; -3683.65233282 ; 6233.13224447 ; -2446.35551798 ; 6452.87489621 ; 0 ; 0 ; 0 ; 7.17118382454e-08 ; 0 ; 0 ; 1 ; -0.091917654048 ; 0 ; 0.175891952329 ; 1560346153 ;
208 ; 1560346154 ; 48.281331 ; -4.630436 ; 0 ; 0 ; 0 ; 0 ; 0 ; 0 ; 0 ; 0 ; -0.0463823807915 ; 0 ; 48.3373866467 ; -4.68023866167 ; -3681.21607845 ; 6233.10351911 ; -3681.21607845 ; 6233.10351911 ; -2446.35551798 ; 6452.87489621 ; 0 ; 0 ; 0 ; 7.17118382454e-08 ; 0 ; 0 ; 1 ; -0.0784482344573 ; 0 ; 0.175891952329 ; 1560346154 ;
209 ; 1560346155 ; 48.281331 ; -4.630436 ; 0 ; 0 ; 0 ; 0 ; 0 ; 0 ; 0 ; 0 ; -0.018451763459 ; 0 ; 48.3373872033 ; -4.68020503167 ; -3678.73024148 ; 6233.16541762 ; -3678.73024148 ; 6233.16541762 ; -2446.35551798 ; 6452.87489621 ; 0 ; 0 ; 0 ; -1.91852450371e-07 ; 0 ; 0 ; 1 ; -0.0696510568512 ; 0 ; 0.176553108368 ; 1560346155 ;
210 ; 1560346156 ; 48.281331 ; -4.630436 ; 0 ; 0 ; 0 ; 0 ; 0 ; 0 ; 0 ; 0 ; 0.015523718528 ; 0 ; 48.337387715 ; -4.68017201 ; -3676.28937342 ; 6233.22231236 ; -3676.28937342 ; 6233.22231236 ; -2446.35551798 ; 6452.87489621 ; 0 ; 0 ; 0 ; 1.03376805782e-07 ; 0 ; 0 ; 1 ; -0.0573297261891 ; 0 ; 0.176850987216 ; 1560346156 ;
211 ; 1560346157 ; 48.281331 ; -4.630436 ; 0 ; 0 ; 0 ; 0 ; 0 ; 0 ; 0 ; 0 ; 0.0418806540291 ; 0 ; 48.337388125 ; -4.68014007667 ; -3673.92895803 ; 6233.26790228 ; -3673.92895803 ; 6233.26790228 ; -2446.35551798 ; 6452.87489621 ; 0 ; 0 ; 0 ; 4.00468707085e-08 ; 0 ; 0 ; 1 ; -0.0483551294634 ; 0 ; 0.177147607734 ; 1560346157 ;
212 ; 1560346158 ; 48.281331 ; -4.630436 ; 0 ; 0 ; 0 ; 0 ; 0 ; 0 ; 0 ; 0 ; 0.0344200598518 ; 0 ; 48.3373898833 ; -4.68010881 ; -3671.61772293 ; 6233.46342003 ; -3671.61772293 ; 6233.46342003 ; -2446.35551798 ; 6452.87489621 ; 0 ; 0 ; 0 ; 4.00468707085e-08 ; 0 ; 0 ; 1 ; -0.0495116659994 ; 0 ; 0.177147607734 ; 1560346158 ;
213 ; 1560346159 ; 48.281331 ; -4.630436 ; 0 ; 0 ; 0 ; 0 ; 0 ; 0 ; 0 ; 0 ; 0.0267436968605 ; 0 ; 48.33739263 ; -4.68007728333 ; -3669.2871987 ; 6233.76883542 ; -3669.2871987 ; 6233.76883542 ; -2446.35551798 ; 6452.87489621 ; 0 ; 0 ; 0 ; 7.17118382454e-08 ; 0 ; 0 ; 1 ; -0.0547432003792 ; 0 ; 0.177408264347 ; 1560346159 ;
214 ; 1560346160 ; 48.281331 ; -4.630436 ; 0 ; 0 ; 0 ; 0 ; 0 ; 0 ; 0 ; 0 ; -0.0362758172234 ; 0 ; 48.3373950033 ; -4.680045455 ; -3666.93440356 ; 6234.03273805 ; -3666.93440356 ; 6234.03273805 ; -2446.35551798 ; 6452.87489621 ; 0 ; 0 ; 0 ; 7.17118382454e-08 ; 0 ; 0 ; 1 ; -0.071959006625 ; 0 ; 0.177408264347 ; 1560346160 ;
215 ; 1560346161 ; 48.281331 ; -4.630436 ; 0 ; 0 ; 0 ; 0 ; 0 ; 0 ; 0 ; 0 ; -0.0812654030998 ; 0 ; 48.3373959417 ; -4.68001291667 ; -3664.5292314 ; 6234.13707596 ; -3664.5292314 ; 6234.13707596 ; -2446.35551798 ; 6452.87489621 ; 0 ; 0 ; 0 ; 1.00582838058e-07 ; 0 ; 0 ; 1 ; -0.0914807335004 ; 0 ; 0.177533200533 ; 1560346161 ;
216 ; 1560346162 ; 48.281331 ; -4.630436 ; 0 ; 0 ; 0 ; 0 ; 0 ; 0 ; 0 ; 0 ; -0.0841660035332 ; 0 ; 48.3373966333 ; -4.679980335 ; -3662.12087402 ; 6234.21398578 ; -3662.12087402 ; 6234.21398578 ; -2446.35551798 ; 6452.87489621 ; 0 ; 0 ; 0 ; -3.58559191227e-08 ; 0 ; 0 ; 1 ; -0.0919998343133 ; 0 ; 0.178076142046 ; 1560346162 ;
217 ; 1560346163 ; 48.281331 ; -4.630436 ; 0 ; 0 ; 0 ; 0 ; 0 ; 0 ; 0 ; 0 ; -0.0683580172737 ; 0 ; 48.3373968383 ; -4.67994737333 ; -3659.68446355 ; 6234.23678074 ; -3659.68446355 ; 6234.23678074 ; -2446.35551798 ; 6452.87489621 ; 0 ; 0 ; 0 ; 1.36438757181e-07 ; 0 ; 0 ; 1 ; -0.0875804658078 ; 0 ; 0.178407593809 ; 1560346163 ;
218 ; 1560346164 ; 48.281331 ; -4.630436 ; 0 ; 0 ; 0 ; 0 ; 0 ; 0 ; 0 ; 0 ; -0.0449825061043 ; 0 ; 48.3373976217 ; -4.67991491 ; -3657.28484643 ; 6234.32388343 ; -3657.28484643 ; 6234.32388343 ; -2446.35551798 ; 6452.87489621 ; 0 ; 0 ; 0 ; 1.36438757181e-07 ; 0 ; 0 ; 1 ; -0.0781589141773 ; 0 ; 0.178407593809 ; 1560346164 ;
219 ; 1560346165 ; 48.281331 ; -4.630436 ; 0 ; 0 ; 0 ; 0 ; 0 ; 0 ; 0 ; 0 ; -0.0105304253777 ; 0 ; 48.3373980517 ; -4.67988292333 ; -3654.92048803 ; 6234.37169725 ; -3654.92048803 ; 6234.37169725 ; -2446.35551798 ; 6452.87489621 ; 0 ; 0 ; 0 ; -1.41561031342e-07 ; 0 ; 0 ; 1 ; -0.0687767859717 ; 0 ; 0.178987069702 ; 1560346165 ;
220 ; 1560346166 ; 48.281331 ; -4.630436 ; 0 ; 0 ; 0 ; 0 ; 0 ; 0 ; 0 ; 0 ; 0.0194734799187 ; 0 ; 48.337398545 ; -4.67985127667 ; -3652.58125658 ; 6234.42655342 ; -3652.58125658 ; 6234.42655342 ; -2446.35551798 ; 6452.87489621 ; 0 ; 0 ; 0 ; -9.49949026108e-08 ; 0 ; 0 ; 1 ; -0.0548497273254 ; 0 ; 0.179282374975 ; 1560346166 ;
221 ; 1560346167 ; 48.281331 ; -4.630436 ; 0 ; 0 ; 0 ; 0 ; 0 ; 0 ; 0 ; 0 ; 0.0209670531074 ; 0 ; 48.3374004033 ; -4.67981942333 ; -3650.22665147 ; 6234.63319065 ; -3650.22665147 ; 6234.63319065 ; -2446.35551798 ; 6452.87489621 ; 0 ; 0 ; 0 ; -1.06170773506e-07 ; 0 ; 0 ; 1 ; -0.0535692407417 ; 0 ; 0.179458955415 ; 1560346167 ;
222 ; 1560346168 ; 48.281331 ; -4.630436 ; 0 ; 0 ; 0 ; 0 ; 0 ; 0 ; 0 ; 0 ; -0.0224878323753 ; 0 ; 48.3374029017 ; -4.67978670667 ; -3647.80818656 ; 6234.91099265 ; -3647.80818656 ; 6234.91099265 ; -2446.35551798 ; 6452.87489621 ; 0 ; 0 ; 0 ; 6.00703060627e-08 ; 0 ; 0 ; 1 ; -0.0733123634987 ; 0 ; 0.179588186825 ; 1560346168 ;
223 ; 1560346169 ; 48.281331 ; -4.630436 ; 0 ; 0 ; 0 ; 0 ; 0 ; 0 ; 0 ; 0 ; -0.0739706290443 ; 0 ; 48.337404535 ; -4.67975446667 ; -3645.42501704 ; 6235.09261103 ; -3645.42501704 ; 6235.09261103 ; -2446.35551798 ; 6452.87489621 ; 0 ; 0 ; 0 ; -5.72763383389e-08 ; 0 ; 0 ; 1 ; -0.0903136572384 ; 0 ; 0.179790447072 ; 1560346169 ;
224 ; 1560346170 ; 48.281331 ; -4.630436 ; 0 ; 0 ; 0 ; 0 ; 0 ; 0 ; 0 ; 0 ; -0.127631856271 ; 0 ; 48.3374049367 ; -4.67972247167 ; -3643.06004512 ; 6235.13727432 ; -3643.06004512 ; 6235.13727432 ; -2446.35551798 ; 6452.87489621 ; 0 ; 0 ; 0 ; -5.72763383389e-08 ; 0 ; 0 ; 1 ; -0.104391290858 ; 0 ; 0.179790447072 ; 1560346170 ;
225 ; 1560346171 ; 48.281331 ; -4.630436 ; 0 ; 0 ; 0 ; 0 ; 0 ; 0 ; 0 ; 0 ; -0.167495561906 ; 0 ; 48.3374047067 ; -4.679689745 ; -3640.64103645 ; 6235.11169949 ; -3640.64103645 ; 6235.11169949 ; -2446.35551798 ; 6452.87489621 ; 0 ; 0 ; 0 ; 4.05125319958e-08 ; 0 ; 0 ; 1 ; -0.120593985773 ; 0 ; 0.180478888314 ; 1560346171 ;
226 ; 1560346172 ; 48.281331 ; -4.630436 ; 0 ; 0 ; 0 ; 0 ; 0 ; 0 ; 0 ; 0 ; -0.169031931229 ; 0 ; 48.3374041667 ; -4.67965662167 ; -3638.19272986 ; 6235.05165423 ; -3638.19272986 ; 6235.05165423 ; -2446.35551798 ; 6452.87489621 ; 0 ; 0 ; 0 ; 4.05125319958e-08 ; 0 ; 0 ; 1 ; -0.121939175119 ; 0 ; 0.180478888314 ; 1560346172 ;
227 ; 1560346173 ; 48.281331 ; -4.630436 ; 0 ; 0 ; 0 ; 0 ; 0 ; 0 ; 0 ; 0 ; -0.151859594651 ; 0 ; 48.3374031833 ; -4.67962308667 ; -3635.71402607 ; 6234.94231255 ; -3635.71402607 ; 6234.94231255 ; -2446.35551798 ; 6452.87489621 ; 0 ; 0 ; 0 ; -0.553501176182 ; 0 ; 0 ; 1 ; -0.124361052918 ; 0 ; 0.209576593025 ; 1560346173 ;
228 ; 1560346174 ; 48.281331 ; -4.630436 ; 0 ; 0 ; 0 ; 0 ; 0 ; 0 ; 0 ; 0 ; -0.0828539860924 ; 0 ; 48.3374024817 ; -4.67959026167 ; -3633.28778249 ; 6234.86429078 ; -3633.28778249 ; 6234.86429078 ; -2446.35551798 ; 6452.87489621 ; 0 ; 0 ; 0 ; 2.23517417908e-08 ; 0 ; 0 ; 1 ; -0.0942388652718 ; 0 ; 0.181773161834 ; 1560346174 ;
229 ; 1560346175 ; 48.281331 ; -4.630436 ; 0 ; 0 ; 0 ; 0 ; 0 ; 0 ; 0 ; 0 ; -0.0629794133385 ; 0 ; 48.3374014067 ; -4.6795586 ; -3630.94755441 ; 6234.74475623 ; -3630.94755441 ; 6234.74475623 ; -2446.35551798 ; 6452.87489621 ; 0 ; 0 ; 0 ; -2.34693288803e-07 ; 0 ; 0 ; 1 ; -0.0857349566863 ; 0 ; 0.182221644537 ; 1560346175 ;
230 ; 1560346176 ; 48.281331 ; -4.630436 ; 0 ; 0 ; 0 ; 0 ; 0 ; 0 ; 0 ; 0 ; -0.0631193650444 ; 0 ; 48.3374008383 ; -4.67952688333 ; -3628.60322479 ; 6234.68156045 ; -3628.60322479 ; 6234.68156045 ; -2446.35551798 ; 6452.87489621 ; 0 ; 0 ; 0 ; -2.34693288803e-07 ; 0 ; 0 ; 1 ; -0.084781294405 ; 0 ; 0.182221644537 ; 1560346176 ;
231 ; 1560346177 ; 48.281331 ; -4.630436 ; 0 ; 0 ; 0 ; 0 ; 0 ; 0 ; 0 ; 0 ; -0.090427113839 ; 0 ; 48.3374000067 ; -4.67949441333 ; -3626.20323044 ; 6234.58908333 ; -3626.20323044 ; 6234.58908333 ; -2446.35551798 ; 6452.87489621 ; 0 ; 0 ; 0 ; 1.53668224812e-08 ; 0 ; 0 ; 1 ; -0.0943407026916 ; 0 ; 0.183065011418 ; 1560346177 ;
232 ; 1560346178 ; 48.281331 ; -4.630436 ; 0 ; 0 ; 0 ; 0 ; 0 ; 0 ; 0 ; 0 ; -0.0905601514061 ; 0 ; 48.337399355 ; -4.679461375 ; -3623.76121426 ; 6234.51662131 ; -3623.76121426 ; 6234.51662131 ; -2446.35551798 ; 6452.87489621 ; 0 ; 0 ; 0 ; 1.53668224812e-08 ; 0 ; 0 ; 1 ; -0.0970805860105 ; 0 ; 0.183065011418 ; 1560346178 ;
233 ; 1560346179 ; 48.281331 ; -4.630436 ; 0 ; 0 ; 0 ; 0 ; 0 ; 0 ; 0 ; 0 ; -0.101092053719 ; 0 ; 48.3373996983 ; -4.67942931 ; -3621.39107229 ; 6234.55479823 ; -3621.39107229 ; 6234.55479823 ; -2446.35551798 ; 6452.87489621 ; 0 ; 0 ; 0 ; 6.6589564085e-08 ; 0 ; 0 ; 1 ; -0.101280410649 ; 0 ; 0.183495368042 ; 1560346179 ;
234 ; 1560346180 ; 48.281331 ; -4.630436 ; 0 ; 0 ; 0 ; 0 ; 0 ; 0 ; 0 ; 0 ; -0.138964368172 ; 0 ; 48.3373989083 ; -4.67939710833 ; -3619.01090895 ; 6234.46695424 ; -3619.01090895 ; 6234.46695424 ; -2446.35551798 ; 6452.87489621 ; 0 ; 0 ; 0 ; -0.521448133513 ; 0 ; 0 ; 1 ; -0.11171980692 ; 0 ; 0.210852180279 ; 1560346180 ;
235 ; 1560346181 ; 48.281331 ; -4.630436 ; 0 ; 0 ; 0 ; 0 ; 0 ; 0 ; 0 ; 0 ; -0.189492298432 ; 0 ; 48.3373981033 ; -4.67936484667 ; -3616.62631163 ; 6234.37744232 ; -3616.62631163 ; 6234.37744232 ; -2446.35551798 ; 6452.87489621 ; 0 ; 0 ; 0 ; -9.31322574615e-09 ; 0 ; 0 ; 1 ; -0.129155409972 ; 0 ; 0.184702755237 ; 1560346181 ;
236 ; 1560346182 ; 48.281331 ; -4.630436 ; 0 ; 0 ; 0 ; 0 ; 0 ; 0 ; 0 ; 0 ; -0.236318541833 ; 0 ; 48.33739719 ; -4.67933251833 ; -3614.23679418 ; 6234.27588429 ; -3614.23679418 ; 6234.27588429 ; -2446.35551798 ; 6452.87489621 ; 0 ; 0 ; 0 ; -9.31322574615e-09 ; 0 ; 0 ; 1 ; -0.149611594351 ; 0 ; 0.184702755237 ; 1560346182 ;
237 ; 1560346183 ; 48.281331 ; -4.630436 ; 0 ; 0 ; 0 ; 0 ; 0 ; 0 ; 0 ; 0 ; -0.262428833314 ; 0 ; 48.3373951933 ; -4.67929929333 ; -3611.78107535 ; 6234.05386509 ; -3611.78107535 ; 6234.05386509 ; -2446.35551798 ; 6452.87489621 ; 0 ; 0 ; 0 ; -1.53668224812e-08 ; 0 ; 0 ; 1 ; -0.158861183929 ; 0 ; 0.185720693963 ; 1560346183 ;
238 ; 1560346184 ; 48.281331 ; -4.630436 ; 0 ; 0 ; 0 ; 0 ; 0 ; 0 ; 0 ; 0 ; -0.323037935563 ; 0 ; 48.33739197 ; -4.67926612667 ; -3609.32975494 ; 6233.69544677 ; -3609.32975494 ; 6233.69544677 ; -2446.35551798 ; 6452.87489621 ; 0 ; 0 ; 0 ; 6.19329512119e-08 ; 0 ; 0 ; 1 ; -0.1761915205 ; 0 ; 0.186400492809 ; 1560346184 ;
239 ; 1560346185 ; 48.281331 ; -4.630436 ; 0 ; 0 ; 0 ; 0 ; 0 ; 0 ; 0 ; 0 ; -0.307706428834 ; 0 ; 48.3373872383 ; -4.67923402667 ; -3606.95738471 ; 6233.16930944 ; -3606.95738471 ; 6233.16930944 ; -2446.35551798 ; 6452.87489621 ; 0 ; 0 ; 0 ; 9.0803951025e-08 ; 0 ; 0 ; 1 ; -0.174321341099 ; 0 ; 0.187210114685 ; 1560346185 ;
240 ; 1560346186 ; 48.281331 ; -4.630436 ; 0 ; 0 ; 0 ; 0 ; 0 ; 0 ; 0 ; 0 ; -0.288713527985 ; 0 ; 48.33738145 ; -4.67920326833 ; -3604.68425947 ; 6232.52567614 ; -3604.68425947 ; 6232.52567614 ; -2446.35551798 ; 6452.87489621 ; 0 ; 0 ; 0 ; 2.98023223877e-08 ; 0 ; 0 ; 1 ; -0.167171753252 ; 0 ; 0.188105006709 ; 1560346186 ;
